"Interval"|"ms"|0|0|1,"Utc"|"ms"|0|0|1,"ElapsedTime"|"Min"|0.0|0.0|10,"Steering"|"volt"|-130.0|130.09|10,"GPSDOP"|""|0.0|20.0|10,"GPSSats"|""|0|20|10,"GPSQual"|""|0|5|1,"Battery"|"Volts"|0.0|20.0|1,"Battery"|"Volts"|0.0|20.0|1,"AccelX"|"G"|-3.0|3.0|25,"AccelY"|"G"|-3.0|3.0|25,"AccelZ"|"G"|-3.0|3.0|25,"Yaw"|"Deg/Sec"|-120|120|25,"Pitch"|"Deg/Sec"|-120|120|25,"Roll"|"Deg/Sec"|-120|120|25,"Gsum"|"G"|0.0|3.0|25,"GsumMax"|"G"|0.0|3.0|25,"GsumPct"|"%"|0|100|25,"RPM"|""|0|10000|25,"GPIO1"|""|0.0|1.0|10,"LR_SGAMP_CA"|""|-32768|32767|200,"RR_SGAMP_RA"|""|-32768|32767|1,"RR_SGAMP_CA"|""|-32768|32767|1,"LR_SGAMP_CA"|""|-32768|32767|1,"LR_SGAMP_RA"|""|-32768|32767|1,"RF_SGAMP_CA"|""|-32768|32767|1,"RF_SGAMP_RA"|""|-32768|32767|1,"Latitude"|"Degrees"|-180.0|180.0|10,"Longitude"|"Degrees"|-180.0|180.0|10,"Speed"|"mph"|0.0|150.0|10,"Altitude"|"ft"|0.0|4000.0|10,"GPSSats"|""|0|20|10,"GPSQual"|""|0|5|10,"GPSDOP"|""|0.0|20.0|10,"LapCount"|""|0|0|10,"LapTime"|"Min"|0.0|0.0|10,"Sector"|""|0|0|10,"SectorTime"|"Min"|0.0|0.0|10,"PredTime"|"Min"|0.0|0.0|5,"CurrentLap"|""|0|0|10,"Distance"|"mi"|0.0|0.0|10,"SessionTime"|"Min"|0.0|0.0|10
31474,1722833332017,0.5246,,,,,,,,,,,,,,,,,,0,,,,,,,,,,,,,,,,,,,,,
31479,1722833332022,0.5246,,,,,,,,,,,,,,,,,,0,,,,,,,,,,,,,,,,,,,,,
31484,1722833332027,0.5247,,,,,,,,,,,,,,,,,,0,,,,,,,,,,,,,,,,,,,,,
31489,1722833332032,0.5248,,,,,,,,,,,,,,,,,,0,,,,,,,,,,,,,,,,,,,,,
31494,1722833332037,0.5249,,,,,,,0.05,-0.02,0.01,0,-0,-0,0.05,0.05,94,0,,0,,,,,,,,,,,,,,,,,,,,,
31499,1722833332042,0.525,,,,,,,,,,,,,,,,,,0,,,,,,,,,,,,,,,,,,,,,
31504,1722833332047,0.5251,,,,,,,,,,,,,,,,,,0,,,,,,,,,,,,,,,,,,,,,
31509,1722833332052,0.5252,,,,,,,,,,,,,,,,,,0,,,,,,,,,,,,,,,,,,,,,
31514,1722833332057,0.5252,,,,,,,,,,,,,,,,,,0,,,,,,,,,,,,,,,,,,,,,
31519,1722833332062,0.5253,,,,,,,,,,,,,,,,,,0,,,,,,,,,,,,,,,,,,,,,
31524,1722833332067,0.5254,,,,,,,,,,,,,,,,,,0,,,,,,,,,,,,,,,,,,,,,
31529,1722833332072,0.5255,,,,,,,,,,,,,,,,,,0,,,,,,,,,,,,,,,,,,,,,
31534,1722833332077,0.5256,,,,,,,0.05,-0.02,0.01,0,-0,-0,0.05,0.05,95,0,,0,,,,,,,,,,,,,,,,,,,,,
31539,1722833332082,0.5256,,,,,,,,,,,,,,,,,,0,,,,,,,,,,,,,,,,,,,,,
31544,1722833332092,0.5257,,,,,,,,,,,,,,,,,,0,,,,,,,,,,,,,,,,,,,,,
31549,1722833332097,0.5258,,,,,,,,,,,,,,,,,,0,,,,,,,,,,,,,,,,,,,,,
31554,1722833332102,0.5259,4.624,0.7,1,,,,,,,,,,,,,,0,0,,,,,,,32.776577,-117.070602,0.1,493.0,9,2,2.5,0,0.0,-1,0.0,,0,0.0,0.5259
31559,1722833332107,0.526,,,,,,,,,,,,,,,,,,0,,,,,,,,,,,,,,,,,,,,,
31564,1722833332112,0.5261,,,,,,,,,,,,,,,,,,0,,,,,,,,,,,,,,,,,,,,,
31569,1722833332117,0.5262,,,,,,,,,,,,,,,,,,0,,,,,,,,,,,,,,,,,,,,,
31574,1722833332122,0.5262,,,,,,,0.05,-0.02,0.0,0,-0,-0,0.05,0.05,96,0,,0,,,,,,,,,,,,,,,,,,,,,
31579,1722833332127,0.5263,,,,,,,,,,,,,,,,,,0,,,,,,,,,,,,,,,,,,,,,
31584,1722833332132,0.5264,,,,,,,,,,,,,,,,,,0,,,,,,,,,,,,,,,,,,,,,
31589,1722833332137,0.5265,,,,,,,,,,,,,,,,,,0,,,,,,,,,,,,,,,,,,,,,
31594,1722833332142,0.5266,,,,,,,,,,,,,,,,,,0,,,,,,,,,,,,,,,,,,,,,
31599,1722833332147,0.5266,,,,,,,,,,,,,,,,,,0,,,,,,,,,,,,,,,,,,,,,
31604,1722833332152,0.5267,,,,,,,,,,,,,,,,,,0,,,,,,,,,,,,,,,,,,,,,
31609,1722833332157,0.5268,,,,,,,,,,,,,,,,,,0,,,,,,,,,,,,,,,,,,,,,
31614,1722833332162,0.5269,,,,,,,0.05,-0.02,0.0,0,-0,-0,0.05,0.05,95,0,,0,,,,,,,,,,,,,,,,,,,,,
31619,1722833332167,0.527,,,,,,,,,,,,,,,,,,0,,,,,,,,,,,,,,,,,,,,,
31624,1722833332172,0.5271,,,,,,,,,,,,,,,,,,0,,,,,,,,,,,,,,,,,,,,,
31629,1722833332177,0.5271,,,,,,,,,,,,,,,,,,0,,,,,,,,,,,,,,,,,,,,,
31634,1722833332182,0.5272,,,,,,,,,,,,,,,,,,0,,,,,,,,,,,,,,,,,,,,,
31639,1722833332187,0.5273,,,,,,,,,,,,,,,,,,0,,,,,,,,,,,,,,,,,,,,,
31644,1722833332192,0.5274,,,,,,,,,,,,,,,,,,0,,,,,,,,,,,,,,,,,,,,,
31649,1722833332195,0.5275,,,,,,,,,,,,,,,,,,0,,,,,,,,,,,,,,,,,,,,,
31654,1722833332200,0.5276,4.45,0.6,1,,,,0.05,-0.02,0.0,0,-0,-0,0.05,0.05,94,0,0,0,,,,,,,32.776573,-117.070602,0.16,493.8,9,2,2.5,0,0.0,-1,0.0,0.0,0,0.0,0.5276
31659,1722833332205,0.5276,,,,,,,,,,,,,,,,,,0,,,,,,,,,,,,,,,,,,,,,
31664,1722833332210,0.5277,,,,,,,,,,,,,,,,,,0,,,,,,,,,,,,,,,,,,,,,
31669,1722833332215,0.5278,,,,,,,,,,,,,,,,,,0,,,,,,,,,,,,,,,,,,,,,
31674,1722833332220,0.5279,,,,,,,,,,,,,,,,,,0,,,,,,,,,,,,,,,,,,,,,
31679,1722833332225,0.528,,,,,,,,,,,,,,,,,,0,,,,,,,,,,,,,,,,,,,,,
31684,1722833332230,0.5281,,,,,,,,,,,,,,,,,,0,,,,,,,,,,,,,,,,,,,,,
31689,1722833332235,0.5282,,,,,,,,,,,,,,,,,,0,,,,,,,,,,,,,,,,,,,,,
31694,1722833332240,0.5282,,,,,,,0.05,-0.02,0.0,0,-0,-0,0.05,0.05,95,0,,0,,,,,,,,,,,,,,,,,,,,,
31699,1722833332245,0.5283,,,,,,,,,,,,,,,,,,0,,,,,,,,,,,,,,,,,,,,,
31704,1722833332250,0.5284,,,,,,,,,,,,,,,,,,0,,,,,,,,,,,,,,,,,,,,,
31709,1722833332255,0.5285,,,,,,,,,,,,,,,,,,0,,,,,,,,,,,,,,,,,,,,,
31714,1722833332260,0.5286,,,,,,,,,,,,,,,,,,0,,,,,,,,,,,,,,,,,,,,,
31719,1722833332265,0.5286,,,,,,,,,,,,,,,,,,0,,,,,,,,,,,,,,,,,,,,,
31724,1722833332270,0.5287,,,,,,,,,,,,,,,,,,0,,,,,,,,,,,,,,,,,,,,,
31729,1722833332275,0.5288,,,,,,,,,,,,,,,,,,0,,,,,,,,,,,,,,,,,,,,,
31734,1722833332280,0.5289,,,,,,,0.05,-0.02,0.0,0,-0,-0,0.05,0.05,95,0,,0,,,,,,,,,,,,,,,,,,,,,
31739,1722833332285,0.529,,,,,,,,,,,,,,,,,,0,,,,,,,,,,,,,,,,,,,,,
31744,1722833332292,0.5291,,,,,,,,,,,,,,,,,,0,,,,,,,,,,,,,,,,,,,,,
31749,1722833332297,0.5292,,,,,,,,,,,,,,,,,,0,,,,,,,,,,,,,,,,,,,,,
31754,1722833332302,0.5292,4.364,0.7,1,,,,,,,,,,,,,,0,0,,,,,,,32.776573,-117.070618,0.09,494.5,9,2,2.5,0,0.0,-1,0.0,,0,0.0,0.5292
31759,1722833332307,0.5293,,,,,,,,,,,,,,,,,,0,,,,,,,,,,,,,,,,,,,,,
31764,1722833332312,0.5294,,,,,,,,,,,,,,,,,,0,,,,,,,,,,,,,,,,,,,,,
31769,1722833332317,0.5295,,,,,,,,,,,,,,,,,,0,,,,,,,,,,,,,,,,,,,,,
31774,1722833332322,0.5296,,,,,,,0.05,-0.02,0.0,0,0,-0,0.05,0.05,96,0,,0,,,,,,,,,,,,,,,,,,,,,
31779,1722833332327,0.5296,,,,,,,,,,,,,,,,,,0,,,,,,,,,,,,,,,,,,,,,
31784,1722833332332,0.5297,,,,,,,,,,,,,,,,,,0,,,,,,,,,,,,,,,,,,,,,
31789,1722833332337,0.5298,,,,,,,,,,,,,,,,,,0,,,,,,,,,,,,,,,,,,,,,
31794,1722833332342,0.5299,,,,,,,,,,,,,,,,,,0,,,,,,,,,,,,,,,,,,,,,
31799,1722833332347,0.53,,,,,,,,,,,,,,,,,,0,,,,,,,,,,,,,,,,,,,,,
31804,1722833332352,0.5301,,,,,,,,,,,,,,,,,,0,,,,,,,,,,,,,,,,,,,,,
31809,1722833332357,0.5302,,,,,,,,,,,,,,,,,,0,,,,,,,,,,,,,,,,,,,,,
31814,1722833332362,0.5302,,,,,,,0.05,-0.02,0.01,0,-0,-0,0.05,0.05,94,0,,0,,,,,,,,,,,,,,,,,,,,,
31819,1722833332367,0.5303,,,,,,,,,,,,,,,,,,0,,,,,,,,,,,,,,,,,,,,,
31824,1722833332372,0.5304,,,,,,,,,,,,,,,,,,0,,,,,,,,,,,,,,,,,,,,,
31829,1722833332377,0.5305,,,,,,,,,,,,,,,,,,0,,,,,,,,,,,,,,,,,,,,,
31834,1722833332382,0.5306,,,,,,,,,,,,,,,,,,0,,,,,,,,,,,,,,,,,,,,,
31839,1722833332387,0.5306,,,,,,,,,,,,,,,,,,0,,,,,,,,,,,,,,,,,,,,,
31844,1722833332392,0.5307,,,,,,,,,,,,,,,,,,0,,,,,,,,,,,,,,,,,,,,,
31849,1722833332397,0.5308,,,,,,,,,,,,,,,,,,0,,,,,,,,,,,,,,,,,,,,,
31854,1722833332402,0.5309,4.19,0.7,1,,,,0.05,-0.02,0.01,0,-0,-0,0.05,0.05,94,0,0,0,,,,,,,32.776573,-117.070618,0.38,495.6,9,2,2.5,0,0.0,-1,0.0,0.0,0,0.0,0.5309
31859,1722833332407,0.531,,,,,,,,,,,,,,,,,,0,,,,,,,,,,,,,,,,,,,,,
31864,1722833332412,0.5311,,,,,,,,,,,,,,,,,,0,,,,,,,,,,,,,,,,,,,,,
31869,1722833332417,0.5312,,,,,,,,,,,,,,,,,,0,,,,,,,,,,,,,,,,,,,,,
31874,1722833332422,0.5312,,,,,,,,,,,,,,,,,,0,,,,,,,,,,,,,,,,,,,,,
31879,1722833332427,0.5313,,,,,,,,,,,,,,,,,,0,,,,,,,,,,,,,,,,,,,,,
31884,1722833332432,0.5314,,,,,,,,,,,,,,,,,,0,,,,,,,,,,,,,,,,,,,,,
31889,1722833332437,0.5315,,,,,,,,,,,,,,,,,,0,,,,,,,,,,,,,,,,,,,,,
31894,1722833332442,0.5316,,,,,,,0.05,-0.02,0.0,0,0,-0,0.05,0.05,94,0,,0,,,,,,,,,,,,,,,,,,,,,
31899,1722833332447,0.5316,,,,,,,,,,,,,,,,,,0,,,,,,,,,,,,,,,,,,,,,
31904,1722833332452,0.5317,,,,,,,,,,,,,,,,,,0,,,,,,,,,,,,,,,,,,,,,
31909,1722833332457,0.5318,,,,,,,,,,,,,,,,,,0,,,,,,,,,,,,,,,,,,,,,
31914,1722833332462,0.5319,,,,,,,,,,,,,,,,,,0,,,,,,,,,,,,,,,,,,,,,
31919,1722833332467,0.532,,,,,,,,,,,,,,,,,,0,,,,,,,,,,,,,,,,,,,,,
31924,1722833332472,0.5321,,,,,,,,,,,,,,,,,,0,,,,,,,,,,,,,,,,,,,,,
31929,1722833332477,0.5321,,,,,,,,,,,,,,,,,,0,,,,,,,,,,,,,,,,,,,,,
31934,1722833332482,0.5322,,,,,,,0.05,-0.02,0.0,0,0,-0,0.05,0.05,96,0,,0,,,,,,,,,,,,,,,,,,,,,
31939,1722833332487,0.5323,,,,,,,,,,,,,,,,,,0,,,,,,,,,,,,,,,,,,,,,
31944,1722833332492,0.5324,,,,,,,,,,,,,,,,,,0,,,,,,,,,,,,,,,,,,,,,
31949,1722833332497,0.5325,,,,,,,,,,,,,,,,,,0,,,,,,,,,,,,,,,,,,,,,
31954,1722833332502,0.5326,4.45,0.7,1,,,,,,,,,,,,,,0,0,,,,,,,32.776573,-117.070618,0.47,495.6,9,2,2.5,0,0.0,-1,0.0,,0,0.0,0.5326
31959,1722833332507,0.5326,,,,,,,,,,,,,,,,,,0,,,,,,,,,,,,,,,,,,,,,
31964,1722833332512,0.5327,,,,,,,,,,,,,,,,,,0,,,,,,,,,,,,,,,,,,,,,
31969,1722833332517,0.5328,,,,,,,,,,,,,,,,,,0,,,,,,,,,,,,,,,,,,,,,
31974,1722833332522,0.5329,,,,,,,0.05,-0.02,0.0,0,0,-0,0.05,0.05,96,0,,0,,,,,,,,,,,,,,,,,,,,,
31979,1722833332527,0.533,,,,,,,,,,,,,,,,,,0,,,,,,,,,,,,,,,,,,,,,
31984,1722833332532,0.5331,,,,,,,,,,,,,,,,,,0,,,,,,,,,,,,,,,,,,,,,
31989,1722833332537,0.5332,,,,,,,,,,,,,,,,,,0,,,,,,,,,,,,,,,,,,,,,
31994,1722833332542,0.5332,,,,,,,,,,,,,,,,,,0,,,,,,,,,,,,,,,,,,,,,
31999,1722833332547,0.5333,,,,,,,,,,,,,,,,,,0,,,,,,,,,,,,,,,,,,,,,
32004,1722833332552,0.5334,,,,,,,,,,,,,,,,,,0,,,,,,,,,,,,,,,,,,,,,
32009,1722833332557,0.5335,,,,,,,,,,,,,,,,,,0,,,,,,,,,,,,,,,,,,,,,
32014,1722833332562,0.5336,,,,,,,0.05,-0.02,0.0,0,-0,-0,0.05,0.05,95,0,,0,,,,,,,,,,,,,,,,,,,,,
32019,1722833332567,0.5336,,,,,,,,,,,,,,,,,,0,,,,,,,,,,,,,,,,,,,,,
32024,1722833332572,0.5337,,,,,,,,,,,,,,,,,,0,,,,,,,,,,,,,,,,,,,,,
32029,1722833332577,0.5338,,,,,,,,,,,,,,,,,,0,,,,,,,,,,,,,,,,,,,,,
32034,1722833332582,0.5339,,,,,,,,,,,,,,,,,,0,,,,,,,,,,,,,,,,,,,,,
32039,1722833332587,0.534,,,,,,,,,,,,,,,,,,0,,,,,,,,,,,,,,,,,,,,,
32044,1722833332592,0.5341,,,,,,,,,,,,,,,,,,0,,,,,,,,,,,,,,,,,,,,,
32049,1722833332597,0.5342,,,,,,,,,,,,,,,,,,0,,,,,,,,,,,,,,,,,,,,,
32054,1722833332602,0.5342,4.45,0.7,1,1,1.27,12.31,0.05,-0.02,0.01,0,0,-0,0.05,0.05,94,0,0,0,0,-2006,-16320,-1632,-25,-6366,32.776573,-117.070618,0.24,495.7,9,2,2.5,0,0.0,-1,0.0,0.0,0,0.0,0.5342
32059,1722833332607,0.5343,,,,,,,,,,,,,,,,,,0,,,,,,,,,,,,,,,,,,,,,
32064,1722833332612,0.5344,,,,,,,,,,,,,,,,,,0,,,,,,,,,,,,,,,,,,,,,
32069,1722833332617,0.5345,,,,,,,,,,,,,,,,,,0,,,,,,,,,,,,,,,,,,,,,
32074,1722833332622,0.5346,,,,,,,,,,,,,,,,,,0,,,,,,,,,,,,,,,,,,,,,
32079,1722833332627,0.5347,,,,,,,,,,,,,,,,,,0,,,,,,,,,,,,,,,,,,,,,
32084,1722833332632,0.5347,,,,,,,,,,,,,,,,,,0,,,,,,,,,,,,,,,,,,,,,
32089,1722833332637,0.5348,,,,,,,,,,,,,,,,,,0,,,,,,,,,,,,,,,,,,,,,
32094,1722833332642,0.5349,,,,,,,0.05,-0.02,0.01,0,0,-0,0.05,0.05,95,0,,0,,,,,,,,,,,,,,,,,,,,,
32099,1722833332647,0.535,,,,,,,,,,,,,,,,,,0,,,,,,,,,,,,,,,,,,,,,
32104,1722833332652,0.5351,,,,,,,,,,,,,,,,,,0,,,,,,,,,,,,,,,,,,,,,
32109,1722833332657,0.5352,,,,,,,,,,,,,,,,,,0,,,,,,,,,,,,,,,,,,,,,
32114,1722833332662,0.5352,,,,,,,,,,,,,,,,,,0,,,,,,,,,,,,,,,,,,,,,
32119,1722833332667,0.5353,,,,,,,,,,,,,,,,,,0,,,,,,,,,,,,,,,,,,,,,
32124,1722833332672,0.5354,,,,,,,,,,,,,,,,,,0,,,,,,,,,,,,,,,,,,,,,
32129,1722833332677,0.5355,,,,,,,,,,,,,,,,,,0,,,,,,,,,,,,,,,,,,,,,
32134,1722833332682,0.5356,,,,,,,0.05,-0.02,0.01,0,0,-0,0.05,0.05,95,0,,0,,,,,,,,,,,,,,,,,,,,,
32139,1722833332687,0.5356,,,,,,,,,,,,,,,,,,0,,,,,,,,,,,,,,,,,,,,,
32144,1722833332692,0.5357,,,,,,,,,,,,,,,,,,0,,,,,,,,,,,,,,,,,,,,,
32149,1722833332697,0.5358,,,,,,,,,,,,,,,,,,0,,,,,,,,,,,,,,,,,,,,,
32154,1722833332702,0.5359,4.277,0.7,1,,,,,,,,,,,,,,0,0,,,,,,,32.776573,-117.070618,0.13,495.4,9,2,2.5,0,0.0,-1,0.0,,0,0.0,0.5359
32159,1722833332707,0.536,,,,,,,,,,,,,,,,,,0,,,,,,,,,,,,,,,,,,,,,
32164,1722833332712,0.5361,,,,,,,,,,,,,,,,,,0,,,,,,,,,,,,,,,,,,,,,
32169,1722833332717,0.5362,,,,,,,,,,,,,,,,,,0,,,,,,,,,,,,,,,,,,,,,
32174,1722833332722,0.5362,,,,,,,0.05,-0.02,0.01,0,0,-0,0.05,0.05,96,0,,0,,,,,,,,,,,,,,,,,,,,,
32179,1722833332727,0.5363,,,,,,,,,,,,,,,,,,0,,,,,,,,,,,,,,,,,,,,,
32184,1722833332732,0.5364,,,,,,,,,,,,,,,,,,0,,,,,,,,,,,,,,,,,,,,,
32189,1722833332737,0.5365,,,,,,,,,,,,,,,,,,0,,,,,,,,,,,,,,,,,,,,,
32194,1722833332742,0.5366,,,,,,,,,,,,,,,,,,0,,,,,,,,,,,,,,,,,,,,,
32199,1722833332747,0.5366,,,,,,,,,,,,,,,,,,0,,,,,,,,,,,,,,,,,,,,,
32204,1722833332752,0.5367,,,,,,,,,,,,,,,,,,0,,,,,,,,,,,,,,,,,,,,,
32209,1722833332757,0.5368,,,,,,,,,,,,,,,,,,0,,,,,,,,,,,,,,,,,,,,,
32214,1722833332762,0.5369,,,,,,,0.05,-0.02,0.01,0,0,-0,0.05,0.05,97,0,,0,,,,,,,,,,,,,,,,,,,,,
32219,1722833332767,0.537,,,,,,,,,,,,,,,,,,0,,,,,,,,,,,,,,,,,,,,,
32224,1722833332772,0.5371,,,,,,,,,,,,,,,,,,0,,,,,,,,,,,,,,,,,,,,,
32229,1722833332777,0.5372,,,,,,,,,,,,,,,,,,0,,,,,,,,,,,,,,,,,,,,,
32234,1722833332782,0.5372,,,,,,,,,,,,,,,,,,0,,,,,,,,,,,,,,,,,,,,,
32239,1722833332787,0.5373,,,,,,,,,,,,,,,,,,0,,,,,,,,,,,,,,,,,,,,,
32244,1722833332793,0.5374,,,,,,,,,,,,,,,,,,0,,,,,,,,,,,,,,,,,,,,,
32249,1722833332798,0.5375,,,,,,,,,,,,,,,,,,0,,,,,,,,,,,,,,,,,,,,,
32254,1722833332803,0.5376,4.364,0.6,1,,,,0.05,-0.02,0.01,0,0,-0,0.05,0.05,96,0,0,0,,,,,,,32.776573,-117.070618,0.07,495.5,9,2,2.5,0,0.0,-1,0.0,0.0,0,0.0,0.5376
32259,1722833332808,0.5376,,,,,,,,,,,,,,,,,,0,,,,,,,,,,,,,,,,,,,,,
32264,1722833332813,0.5377,,,,,,,,,,,,,,,,,,0,,,,,,,,,,,,,,,,,,,,,
32269,1722833332818,0.5378,,,,,,,,,,,,,,,,,,0,,,,,,,,,,,,,,,,,,,,,
32274,1722833332823,0.5379,,,,,,,,,,,,,,,,,,0,,,,,,,,,,,,,,,,,,,,,
32279,1722833332828,0.538,,,,,,,,,,,,,,,,,,0,,,,,,,,,,,,,,,,,,,,,
32284,1722833332833,0.5381,,,,,,,,,,,,,,,,,,0,,,,,,,,,,,,,,,,,,,,,
32289,1722833332838,0.5382,,,,,,,,,,,,,,,,,,0,,,,,,,,,,,,,,,,,,,,,
32294,1722833332843,0.5382,,,,,,,0.05,-0.02,0.01,0,0,-0,0.05,0.05,97,0,,0,,,,,,,,,,,,,,,,,,,,,
32299,1722833332848,0.5383,,,,,,,,,,,,,,,,,,0,,,,,,,,,,,,,,,,,,,,,
32304,1722833332853,0.5384,,,,,,,,,,,,,,,,,,0,,,,,,,,,,,,,,,,,,,,,
32309,1722833332858,0.5385,,,,,,,,,,,,,,,,,,0,,,,,,,,,,,,,,,,,,,,,
32314,1722833332863,0.5386,,,,,,,,,,,,,,,,,,0,,,,,,,,,,,,,,,,,,,,,
32319,1722833332868,0.5386,,,,,,,,,,,,,,,,,,0,,,,,,,,,,,,,,,,,,,,,
32324,1722833332873,0.5387,,,,,,,,,,,,,,,,,,0,,,,,,,,,,,,,,,,,,,,,
32329,1722833332878,0.5388,,,,,,,,,,,,,,,,,,0,,,,,,,,,,,,,,,,,,,,,
32334,1722833332883,0.5389,,,,,,,0.05,-0.02,0.01,0,0,-0,0.05,0.05,97,0,,0,,,,,,,,,,,,,,,,,,,,,
32339,1722833332888,0.539,,,,,,,,,,,,,,,,,,0,,,,,,,,,,,,,,,,,,,,,
32344,1722833332892,0.5391,,,,,,,,,,,,,,,,,,0,,,,,,,,,,,,,,,,,,,,,
32349,1722833332897,0.5392,,,,,,,,,,,,,,,,,,0,,,,,,,,,,,,,,,,,,,,,
32354,1722833332902,0.5392,4.104,0.6,1,,,,,,,,,,,,,,0,0,,,,,,,32.776573,-117.070618,0.1,495.6,9,2,2.5,0,0.0,-1,0.0,,0,0.0,0.5392
32359,1722833332907,0.5393,,,,,,,,,,,,,,,,,,0,,,,,,,,,,,,,,,,,,,,,
32364,1722833332912,0.5394,,,,,,,,,,,,,,,,,,0,,,,,,,,,,,,,,,,,,,,,
32369,1722833332917,0.5395,,,,,,,,,,,,,,,,,,0,,,,,,,,,,,,,,,,,,,,,
32374,1722833332922,0.5396,,,,,,,0.05,-0.02,0.01,0,-0,-0,0.05,0.05,94,0,,0,,,,,,,,,,,,,,,,,,,,,
32379,1722833332927,0.5396,,,,,,,,,,,,,,,,,,0,,,,,,,,,,,,,,,,,,,,,
32384,1722833332932,0.5397,,,,,,,,,,,,,,,,,,0,,,,,,,,,,,,,,,,,,,,,
32389,1722833332937,0.5398,,,,,,,,,,,,,,,,,,0,,,,,,,,,,,,,,,,,,,,,
32394,1722833332942,0.5399,,,,,,,,,,,,,,,,,,0,,,,,,,,,,,,,,,,,,,,,
32399,1722833332947,0.54,,,,,,,,,,,,,,,,,,0,,,,,,,,,,,,,,,,,,,,,
32404,1722833332952,0.5401,,,,,,,,,,,,,,,,,,0,,,,,,,,,,,,,,,,,,,,,
32409,1722833332957,0.5402,,,,,,,,,,,,,,,,,,0,,,,,,,,,,,,,,,,,,,,,
32414,1722833332962,0.5402,,,,,,,0.05,-0.02,0.0,0,-0,-0,0.05,0.05,93,0,,0,,,,,,,,,,,,,,,,,,,,,
32419,1722833332967,0.5403,,,,,,,,,,,,,,,,,,0,,,,,,,,,,,,,,,,,,,,,
32424,1722833332972,0.5404,,,,,,,,,,,,,,,,,,0,,,,,,,,,,,,,,,,,,,,,
32429,1722833332977,0.5405,,,,,,,,,,,,,,,,,,0,,,,,,,,,,,,,,,,,,,,,
32434,1722833332982,0.5406,,,,,,,,,,,,,,,,,,0,,,,,,,,,,,,,,,,,,,,,
32439,1722833332987,0.5406,,,,,,,,,,,,,,,,,,0,,,,,,,,,,,,,,,,,,,,,
32444,1722833332992,0.5407,,,,,,,,,,,,,,,,,,0,,,,,,,,,,,,,,,,,,,,,
32449,1722833332997,0.5408,,,,,,,,,,,,,,,,,,0,,,,,,,,,,,,,,,,,,,,,
32454,1722833332995,0.5409,4.364,0.7,1,,,,0.05,-0.02,0.0,0,-0,-0,0.05,0.05,95,0,0,0,,,,,,,32.776573,-117.070618,0.05,495.7,10,2,2.4,0,0.0,-1,0.0,0.0,0,0.0,0.5409
32459,1722833333000,0.541,,,,,,,,,,,,,,,,,,0,,,,,,,,,,,,,,,,,,,,,
32464,1722833333005,0.5411,,,,,,,,,,,,,,,,,,0,,,,,,,,,,,,,,,,,,,,,
32469,1722833333010,0.5411,,,,,,,,,,,,,,,,,,0,,,,,,,,,,,,,,,,,,,,,
32474,1722833333015,0.5412,,,,,,,,,,,,,,,,,,0,,,,,,,,,,,,,,,,,,,,,
32479,1722833333020,0.5413,,,,,,,,,,,,,,,,,,0,,,,,,,,,,,,,,,,,,,,,
32484,1722833333025,0.5414,,,,,,,,,,,,,,,,,,0,,,,,,,,,,,,,,,,,,,,,
32489,1722833333030,0.5415,,,,,,,,,,,,,,,,,,0,,,,,,,,,,,,,,,,,,,,,
32494,1722833333035,0.5416,,,,,,,0.05,-0.02,0.0,0,-0,-0,0.05,0.05,96,0,,0,,,,,,,,,,,,,,,,,,,,,
32499,1722833333040,0.5416,,,,,,,,,,,,,,,,,,0,,,,,,,,,,,,,,,,,,,,,
32504,1722833333045,0.5417,,,,,,,,,,,,,,,,,,0,,,,,,,,,,,,,,,,,,,,,
32509,1722833333050,0.5418,,,,,,,,,,,,,,,,,,0,,,,,,,,,,,,,,,,,,,,,
32514,1722833333055,0.5419,,,,,,,,,,,,,,,,,,0,,,,,,,,,,,,,,,,,,,,,
32519,1722833333060,0.542,,,,,,,,,,,,,,,,,,0,,,,,,,,,,,,,,,,,,,,,
32524,1722833333065,0.5421,,,,,,,,,,,,,,,,,,0,,,,,,,,,,,,,,,,,,,,,
32529,1722833333070,0.5422,,,,,,,,,,,,,,,,,,0,,,,,,,,,,,,,,,,,,,,,
32534,1722833333075,0.5422,,,,,,,0.05,-0.02,0.0,0,-0,-0,0.05,0.05,96,0,,0,,,,,,,,,,,,,,,,,,,,,
32539,1722833333080,0.5423,,,,,,,,,,,,,,,,,,0,,,,,,,,,,,,,,,,,,,,,
32544,1722833333091,0.5424,,,,,,,,,,,,,,,,,,0,,,,,,,,,,,,,,,,,,,,,
32549,1722833333096,0.5425,,,,,,,,,,,,,,,,,,0,,,,,,,,,,,,,,,,,,,,,
32554,1722833333101,0.5426,4.537,0.7,1,,,,,,,,,,,,,,0,0,,,,,,,32.776573,-117.070618,0.07,495.7,10,2,2.4,0,0.0,-1,0.0,,0,0.0,0.5426
32559,1722833333106,0.5426,,,,,,,,,,,,,,,,,,0,,,,,,,,,,,,,,,,,,,,,
32564,1722833333111,0.5427,,,,,,,,,,,,,,,,,,0,,,,,,,,,,,,,,,,,,,,,
32569,1722833333116,0.5428,,,,,,,,,,,,,,,,,,0,,,,,,,,,,,,,,,,,,,,,
32574,1722833333121,0.5429,,,,,,,0.05,-0.02,0.0,0,-0,-0,0.05,0.05,93,0,,0,,,,,,,,,,,,,,,,,,,,,
32579,1722833333126,0.543,,,,,,,,,,,,,,,,,,0,,,,,,,,,,,,,,,,,,,,,
32584,1722833333131,0.5431,,,,,,,,,,,,,,,,,,0,,,,,,,,,,,,,,,,,,,,,
32589,1722833333136,0.5432,,,,,,,,,,,,,,,,,,0,,,,,,,,,,,,,,,,,,,,,
32594,1722833333141,0.5432,,,,,,,,,,,,,,,,,,0,,,,,,,,,,,,,,,,,,,,,
32599,1722833333146,0.5433,,,,,,,,,,,,,,,,,,0,,,,,,,,,,,,,,,,,,,,,
32604,1722833333151,0.5434,,,,,,,,,,,,,,,,,,0,,,,,,,,,,,,,,,,,,,,,
32609,1722833333156,0.5435,,,,,,,,,,,,,,,,,,0,,,,,,,,,,,,,,,,,,,,,
32614,1722833333161,0.5436,,,,,,,0.05,-0.02,0.01,0,0,-0,0.05,0.05,94,0,,0,,,,,,,,,,,,,,,,,,,,,
32619,1722833333166,0.5436,,,,,,,,,,,,,,,,,,0,,,,,,,,,,,,,,,,,,,,,
32624,1722833333171,0.5437,,,,,,,,,,,,,,,,,,0,,,,,,,,,,,,,,,,,,,,,
32629,1722833333176,0.5438,,,,,,,,,,,,,,,,,,0,,,,,,,,,,,,,,,,,,,,,
32634,1722833333181,0.5439,,,,,,,,,,,,,,,,,,0,,,,,,,,,,,,,,,,,,,,,
32639,1722833333186,0.544,,,,,,,,,,,,,,,,,,0,,,,,,,,,,,,,,,,,,,,,
32644,1722833333191,0.5441,,,,,,,,,,,,,,,,,,0,,,,,,,,,,,,,,,,,,,,,
32649,1722833333196,0.5442,,,,,,,,,,,,,,,,,,0,,,,,,,,,,,,,,,,,,,,,
32654,1722833333201,0.5442,4.45,0.7,1,,,,0.05,-0.02,0.0,0,0,-0,0.05,0.05,96,0,0,0,,,,,,,32.776573,-117.070618,0.27,495.7,10,2,2.4,0,0.0,-1,0.0,0.0,0,0.0,0.5442
32659,1722833333206,0.5443,,,,,,,,,,,,,,,,,,0,,,,,,,,,,,,,,,,,,,,,
32664,1722833333211,0.5444,,,,,,,,,,,,,,,,,,0,,,,,,,,,,,,,,,,,,,,,
32669,1722833333216,0.5445,,,,,,,,,,,,,,,,,,0,,,,,,,,,,,,,,,,,,,,,
32674,1722833333221,0.5446,,,,,,,,,,,,,,,,,,0,,,,,,,,,,,,,,,,,,,,,
32679,1722833333226,0.5446,,,,,,,,,,,,,,,,,,0,,,,,,,,,,,,,,,,,,,,,
32684,1722833333231,0.5447,,,,,,,,,,,,,,,,,,0,,,,,,,,,,,,,,,,,,,,,
32689,1722833333236,0.5448,,,,,,,,,,,,,,,,,,0,,,,,,,,,,,,,,,,,,,,,
32694,1722833333241,0.5449,,,,,,,0.05,-0.02,0.01,0,0,-0,0.05,0.05,96,0,,0,,,,,,,,,,,,,,,,,,,,,
32699,1722833333246,0.545,,,,,,,,,,,,,,,,,,0,,,,,,,,,,,,,,,,,,,,,
32704,1722833333251,0.5451,,,,,,,,,,,,,,,,,,0,,,,,,,,,,,,,,,,,,,,,
32709,1722833333256,0.5452,,,,,,,,,,,,,,,,,,0,,,,,,,,,,,,,,,,,,,,,
32714,1722833333261,0.5452,,,,,,,,,,,,,,,,,,0,,,,,,,,,,,,,,,,,,,,,
32719,1722833333266,0.5453,,,,,,,,,,,,,,,,,,0,,,,,,,,,,,,,,,,,,,,,
32724,1722833333271,0.5454,,,,,,,,,,,,,,,,,,0,,,,,,,,,,,,,,,,,,,,,
32729,1722833333276,0.5455,,,,,,,,,,,,,,,,,,0,,,,,,,,,,,,,,,,,,,,,
32734,1722833333281,0.5456,,,,,,,0.05,-0.02,0.0,0,-0,-0,0.05,0.05,91,0,,0,,,,,,,,,,,,,,,,,,,,,
32739,1722833333286,0.5456,,,,,,,,,,,,,,,,,,0,,,,,,,,,,,,,,,,,,,,,
32744,1722833333291,0.5457,,,,,,,,,,,,,,,,,,0,,,,,,,,,,,,,,,,,,,,,
32749,1722833333296,0.5458,,,,,,,,,,,,,,,,,,0,,,,,,,,,,,,,,,,,,,,,
32754,1722833333301,0.5459,4.277,0.7,1,,,,,,,,,,,,,,0,0,,,,,,,32.776573,-117.070618,0.35,495.7,10,2,2.4,0,0.0,-1,0.0,,0,0.0,0.5459
32759,1722833333306,0.546,,,,,,,,,,,,,,,,,,0,,,,,,,,,,,,,,,,,,,,,
32764,1722833333311,0.5461,,,,,,,,,,,,,,,,,,0,,,,,,,,,,,,,,,,,,,,,
32769,1722833333316,0.5462,,,,,,,,,,,,,,,,,,0,,,,,,,,,,,,,,,,,,,,,
32774,1722833333321,0.5462,,,,,,,0.05,-0.02,0.0,0,-0,-0,0.05,0.05,93,0,,0,,,,,,,,,,,,,,,,,,,,,
32779,1722833333326,0.5463,,,,,,,,,,,,,,,,,,0,,,,,,,,,,,,,,,,,,,,,
32784,1722833333331,0.5464,,,,,,,,,,,,,,,,,,0,,,,,,,,,,,,,,,,,,,,,
32789,1722833333336,0.5465,,,,,,,,,,,,,,,,,,0,,,,,,,,,,,,,,,,,,,,,
32794,1722833333341,0.5466,,,,,,,,,,,,,,,,,,0,,,,,,,,,,,,,,,,,,,,,
32799,1722833333346,0.5466,,,,,,,,,,,,,,,,,,0,,,,,,,,,,,,,,,,,,,,,
32804,1722833333351,0.5467,,,,,,,,,,,,,,,,,,0,,,,,,,,,,,,,,,,,,,,,
32809,1722833333356,0.5468,,,,,,,,,,,,,,,,,,0,,,,,,,,,,,,,,,,,,,,,
32814,1722833333361,0.5469,,,,,,,0.05,-0.02,0.01,0,-0,-0,0.05,0.05,97,0,,0,,,,,,,,,,,,,,,,,,,,,
32819,1722833333366,0.547,,,,,,,,,,,,,,,,,,0,,,,,,,,,,,,,,,,,,,,,
32824,1722833333371,0.5471,,,,,,,,,,,,,,,,,,0,,,,,,,,,,,,,,,,,,,,,
32829,1722833333376,0.5472,,,,,,,,,,,,,,,,,,0,,,,,,,,,,,,,,,,,,,,,
32834,1722833333381,0.5472,,,,,,,,,,,,,,,,,,0,,,,,,,,,,,,,,,,,,,,,
32839,1722833333386,0.5473,,,,,,,,,,,,,,,,,,0,,,,,,,,,,,,,,,,,,,,,
32844,1722833333391,0.5474,,,,,,,,,,,,,,,,,,0,,,,,,,,,,,,,,,,,,,,,
32849,1722833333396,0.5475,,,,,,,,,,,,,,,,,,0,,,,,,,,,,,,,,,,,,,,,
32854,1722833333401,0.5476,4.364,0.7,1,,,,0.05,-0.02,0.01,0,0,-0,0.05,0.05,97,0,0,0,,,,,,,32.776573,-117.070618,0.12,495.4,10,2,2.4,0,0.0,-1,0.0,0.0,0,0.0,0.5476
32859,1722833333406,0.5476,,,,,,,,,,,,,,,,,,0,,,,,,,,,,,,,,,,,,,,,
32864,1722833333411,0.5477,,,,,,,,,,,,,,,,,,0,,,,,,,,,,,,,,,,,,,,,
32869,1722833333416,0.5478,,,,,,,,,,,,,,,,,,0,,,,,,,,,,,,,,,,,,,,,
32874,1722833333421,0.5479,,,,,,,,,,,,,,,,,,0,,,,,,,,,,,,,,,,,,,,,
32879,1722833333426,0.548,,,,,,,,,,,,,,,,,,0,,,,,,,,,,,,,,,,,,,,,
32884,1722833333431,0.5481,,,,,,,,,,,,,,,,,,0,,,,,,,,,,,,,,,,,,,,,
32889,1722833333436,0.5482,,,,,,,,,,,,,,,,,,0,,,,,,,,,,,,,,,,,,,,,
32894,1722833333441,0.5482,,,,,,,0.05,-0.02,0.0,0,-0,-0,0.05,0.05,95,0,,0,,,,,,,,,,,,,,,,,,,,,
32899,1722833333446,0.5483,,,,,,,,,,,,,,,,,,0,,,,,,,,,,,,,,,,,,,,,
32904,1722833333451,0.5484,,,,,,,,,,,,,,,,,,0,,,,,,,,,,,,,,,,,,,,,
32909,1722833333456,0.5485,,,,,,,,,,,,,,,,,,0,,,,,,,,,,,,,,,,,,,,,
32914,1722833333461,0.5486,,,,,,,,,,,,,,,,,,0,,,,,,,,,,,,,,,,,,,,,
32919,1722833333466,0.5487,,,,,,,,,,,,,,,,,,0,,,,,,,,,,,,,,,,,,,,,
32924,1722833333471,0.5487,,,,,,,,,,,,,,,,,,0,,,,,,,,,,,,,,,,,,,,,
32929,1722833333476,0.5488,,,,,,,,,,,,,,,,,,0,,,,,,,,,,,,,,,,,,,,,
32934,1722833333481,0.5489,,,,,,,0.05,-0.02,0.0,0,0,-0,0.05,0.05,95,0,,0,,,,,,,,,,,,,,,,,,,,,
32939,1722833333486,0.549,,,,,,,,,,,,,,,,,,0,,,,,,,,,,,,,,,,,,,,,
32944,1722833333491,0.5491,,,,,,,,,,,,,,,,,,0,,,,,,,,,,,,,,,,,,,,,
32949,1722833333496,0.5492,,,,,,,,,,,,,,,,,,0,,,,,,,,,,,,,,,,,,,,,
32954,1722833333501,0.5492,4.364,0.7,1,,,,,,,,,,,,,,0,0,,,,,,,32.776573,-117.070618,0.26,495.1,10,2,2.4,0,0.0,-1,0.0,,0,0.0,0.5492
32959,1722833333506,0.5493,,,,,,,,,,,,,,,,,,0,,,,,,,,,,,,,,,,,,,,,
32964,1722833333511,0.5494,,,,,,,,,,,,,,,,,,0,,,,,,,,,,,,,,,,,,,,,
32969,1722833333516,0.5495,,,,,,,,,,,,,,,,,,0,,,,,,,,,,,,,,,,,,,,,
32974,1722833333521,0.5496,,,,,,,0.05,-0.01,0.0,0,-0,-0,0.05,0.05,95,0,,0,,,,,,,,,,,,,,,,,,,,,
32979,1722833333526,0.5496,,,,,,,,,,,,,,,,,,0,,,,,,,,,,,,,,,,,,,,,
32984,1722833333531,0.5497,,,,,,,,,,,,,,,,,,0,,,,,,,,,,,,,,,,,,,,,
32989,1722833333536,0.5498,,,,,,,,,,,,,,,,,,0,,,,,,,,,,,,,,,,,,,,,
32994,1722833333541,0.5499,,,,,,,,,,,,,,,,,,0,,,,,,,,,,,,,,,,,,,,,
32999,1722833333546,0.55,,,,,,,,,,,,,,,,,,0,,,,,,,,,,,,,,,,,,,,,
33004,1722833333551,0.5501,,,,,,,,,,,,,,,,,,0,,,,,,,,,,,,,,,,,,,,,
33009,1722833333556,0.5502,,,,,,,,,,,,,,,,,,0,,,,,,,,,,,,,,,,,,,,,
33014,1722833333561,0.5502,,,,,,,0.05,-0.02,0.0,0,0,-0,0.05,0.05,95,0,,0,,,,,,,,,,,,,,,,,,,,,
33019,1722833333566,0.5503,,,,,,,,,,,,,,,,,,0,,,,,,,,,,,,,,,,,,,,,
33024,1722833333571,0.5504,,,,,,,,,,,,,,,,,,0,,,,,,,,,,,,,,,,,,,,,
33029,1722833333576,0.5505,,,,,,,,,,,,,,,,,,0,,,,,,,,,,,,,,,,,,,,,
33034,1722833333581,0.5506,,,,,,,,,,,,,,,,,,0,,,,,,,,,,,,,,,,,,,,,
33039,1722833333586,0.5506,,,,,,,,,,,,,,,,,,0,,,,,,,,,,,,,,,,,,,,,
33044,1722833333592,0.5507,,,,,,,,,,,,,,,,,,0,,,,,,,,,,,,,,,,,,,,,
33049,1722833333597,0.5508,,,,,,,,,,,,,,,,,,0,,,,,,,,,,,,,,,,,,,,,
33054,1722833333602,0.5509,4.364,0.7,1,1,1.27,12.25,0.05,-0.02,0.0,0,-0,-0,0.05,0.05,95,0,0,0,0,-1996,-19870,-1987,-25,-6367,32.776573,-117.070618,0.25,495.1,10,2,2.4,0,0.0,-1,0.0,0.0,0,0.0,0.5509
33059,1722833333607,0.551,,,,,,,,,,,,,,,,,,0,,,,,,,,,,,,,,,,,,,,,
33064,1722833333612,0.5511,,,,,,,,,,,,,,,,,,0,,,,,,,,,,,,,,,,,,,,,
33069,1722833333617,0.5512,,,,,,,,,,,,,,,,,,0,,,,,,,,,,,,,,,,,,,,,
33074,1722833333622,0.5512,,,,,,,,,,,,,,,,,,0,,,,,,,,,,,,,,,,,,,,,
33079,1722833333627,0.5513,,,,,,,,,,,,,,,,,,0,,,,,,,,,,,,,,,,,,,,,
33084,1722833333632,0.5514,,,,,,,,,,,,,,,,,,0,,,,,,,,,,,,,,,,,,,,,
33089,1722833333637,0.5515,,,,,,,,,,,,,,,,,,0,,,,,,,,,,,,,,,,,,,,,
33094,1722833333642,0.5516,,,,,,,0.05,-0.02,0.0,0,-0,-0,0.05,0.05,96,0,,0,,,,,,,,,,,,,,,,,,,,,
33099,1722833333647,0.5516,,,,,,,,,,,,,,,,,,0,,,,,,,,,,,,,,,,,,,,,
33104,1722833333652,0.5517,,,,,,,,,,,,,,,,,,0,,,,,,,,,,,,,,,,,,,,,
33109,1722833333657,0.5518,,,,,,,,,,,,,,,,,,0,,,,,,,,,,,,,,,,,,,,,
33114,1722833333662,0.5519,,,,,,,,,,,,,,,,,,0,,,,,,,,,,,,,,,,,,,,,
33119,1722833333667,0.552,,,,,,,,,,,,,,,,,,0,,,,,,,,,,,,,,,,,,,,,
33124,1722833333672,0.5521,,,,,,,,,,,,,,,,,,0,,,,,,,,,,,,,,,,,,,,,
33129,1722833333677,0.5522,,,,,,,,,,,,,,,,,,0,,,,,,,,,,,,,,,,,,,,,
33134,1722833333682,0.5522,,,,,,,0.05,-0.02,0.0,0,-0,-0,0.05,0.05,95,0,,0,,,,,,,,,,,,,,,,,,,,,
33139,1722833333687,0.5523,,,,,,,,,,,,,,,,,,0,,,,,,,,,,,,,,,,,,,,,
33144,1722833333691,0.5524,,,,,,,,,,,,,,,,,,0,,,,,,,,,,,,,,,,,,,,,
33149,1722833333696,0.5525,,,,,,,,,,,,,,,,,,0,,,,,,,,,,,,,,,,,,,,,
33154,1722833333701,0.5526,3.757,0.6,1,,,,,,,,,,,,,,0,0,,,,,,,32.776573,-117.070618,0.38,495.1,10,2,2.4,0,0.0,-1,0.0,,0,0.0,0.5526
33159,1722833333706,0.5526,,,,,,,,,,,,,,,,,,0,,,,,,,,,,,,,,,,,,,,,
33164,1722833333711,0.5527,,,,,,,,,,,,,,,,,,0,,,,,,,,,,,,,,,,,,,,,
33169,1722833333716,0.5528,,,,,,,,,,,,,,,,,,0,,,,,,,,,,,,,,,,,,,,,
33174,1722833333721,0.5529,,,,,,,0.05,-0.02,0.01,0,-0,-0,0.05,0.05,96,0,,0,,,,,,,,,,,,,,,,,,,,,
33179,1722833333726,0.553,,,,,,,,,,,,,,,,,,0,,,,,,,,,,,,,,,,,,,,,
33184,1722833333731,0.5531,,,,,,,,,,,,,,,,,,0,,,,,,,,,,,,,,,,,,,,,
33189,1722833333736,0.5532,,,,,,,,,,,,,,,,,,0,,,,,,,,,,,,,,,,,,,,,
33194,1722833333741,0.5532,,,,,,,,,,,,,,,,,,0,,,,,,,,,,,,,,,,,,,,,
33199,1722833333746,0.5533,,,,,,,,,,,,,,,,,,0,,,,,,,,,,,,,,,,,,,,,
33204,1722833333751,0.5534,,,,,,,,,,,,,,,,,,0,,,,,,,,,,,,,,,,,,,,,
33209,1722833333756,0.5535,,,,,,,,,,,,,,,,,,0,,,,,,,,,,,,,,,,,,,,,
33214,1722833333761,0.5536,,,,,,,0.05,-0.02,0.0,0,0,-0,0.05,0.05,96,0,,0,,,,,,,,,,,,,,,,,,,,,
33219,1722833333766,0.5536,,,,,,,,,,,,,,,,,,0,,,,,,,,,,,,,,,,,,,,,
33224,1722833333771,0.5537,,,,,,,,,,,,,,,,,,0,,,,,,,,,,,,,,,,,,,,,
33229,1722833333776,0.5538,,,,,,,,,,,,,,,,,,0,,,,,,,,,,,,,,,,,,,,,
33234,1722833333781,0.5539,,,,,,,,,,,,,,,,,,0,,,,,,,,,,,,,,,,,,,,,
33239,1722833333786,0.554,,,,,,,,,,,,,,,,,,0,,,,,,,,,,,,,,,,,,,,,
33244,1722833333791,0.5541,,,,,,,,,,,,,,,,,,0,,,,,,,,,,,,,,,,,,,,,
33249,1722833333796,0.5542,,,,,,,,,,,,,,,,,,0,,,,,,,,,,,,,,,,,,,,,
33254,1722833333801,0.5542,4.797,0.7,1,,,,0.05,-0.02,0.0,0,0,-0,0.05,0.05,94,0,0,0,,,,,,,32.776573,-117.070618,0.48,495.2,10,2,2.4,0,0.0,-1,0.0,0.0,0,0.0,0.5542
33259,1722833333806,0.5543,,,,,,,,,,,,,,,,,,0,,,,,,,,,,,,,,,,,,,,,
33264,1722833333811,0.5544,,,,,,,,,,,,,,,,,,0,,,,,,,,,,,,,,,,,,,,,
33269,1722833333816,0.5545,,,,,,,,,,,,,,,,,,0,,,,,,,,,,,,,,,,,,,,,
33274,1722833333821,0.5546,,,,,,,,,,,,,,,,,,0,,,,,,,,,,,,,,,,,,,,,
33279,1722833333826,0.5546,,,,,,,,,,,,,,,,,,0,,,,,,,,,,,,,,,,,,,,,
33284,1722833333831,0.5547,,,,,,,,,,,,,,,,,,0,,,,,,,,,,,,,,,,,,,,,
33289,1722833333836,0.5548,,,,,,,,,,,,,,,,,,0,,,,,,,,,,,,,,,,,,,,,
33294,1722833333841,0.5549,,,,,,,0.05,-0.02,0.01,0,0,-0,0.05,0.05,95,0,,0,,,,,,,,,,,,,,,,,,,,,
33299,1722833333846,0.555,,,,,,,,,,,,,,,,,,0,,,,,,,,,,,,,,,,,,,,,
33304,1722833333851,0.5551,,,,,,,,,,,,,,,,,,0,,,,,,,,,,,,,,,,,,,,,
33309,1722833333856,0.5551,,,,,,,,,,,,,,,,,,0,,,,,,,,,,,,,,,,,,,,,
33314,1722833333861,0.5552,,,,,,,,,,,,,,,,,,0,,,,,,,,,,,,,,,,,,,,,
33319,1722833333866,0.5553,,,,,,,,,,,,,,,,,,0,,,,,,,,,,,,,,,,,,,,,
33324,1722833333871,0.5554,,,,,,,,,,,,,,,,,,0,,,,,,,,,,,,,,,,,,,,,
33329,1722833333876,0.5555,,,,,,,,,,,,,,,,,,0,,,,,,,,,,,,,,,,,,,,,
33334,1722833333881,0.5556,,,,,,,0.05,-0.02,0.01,0,0,-0,0.05,0.05,93,0,,0,,,,,,,,,,,,,,,,,,,,,
33339,1722833333886,0.5556,,,,,,,,,,,,,,,,,,0,,,,,,,,,,,,,,,,,,,,,
33344,1722833333893,0.5557,,,,,,,,,,,,,,,,,,0,,,,,,,,,,,,,,,,,,,,,
33349,1722833333898,0.5558,,,,,,,,,,,,,,,,,,0,,,,,,,,,,,,,,,,,,,,,
33354,1722833333903,0.5559,4.277,0.7,1,,,,,,,,,,,,,,0,0,,,,,,,32.776573,-117.070618,0.25,494.8,10,2,2.4,0,0.0,-1,0.0,,0,0.0,0.5559
33359,1722833333908,0.556,,,,,,,,,,,,,,,,,,0,,,,,,,,,,,,,,,,,,,,,
33364,1722833333913,0.5561,,,,,,,,,,,,,,,,,,0,,,,,,,,,,,,,,,,,,,,,
33369,1722833333918,0.5562,,,,,,,,,,,,,,,,,,0,,,,,,,,,,,,,,,,,,,,,
33374,1722833333923,0.5562,,,,,,,0.05,-0.02,0.01,0,0,-0,0.05,0.05,96,0,,0,,,,,,,,,,,,,,,,,,,,,
33379,1722833333928,0.5563,,,,,,,,,,,,,,,,,,0,,,,,,,,,,,,,,,,,,,,,
33384,1722833333933,0.5564,,,,,,,,,,,,,,,,,,0,,,,,,,,,,,,,,,,,,,,,
33389,1722833333938,0.5565,,,,,,,,,,,,,,,,,,0,,,,,,,,,,,,,,,,,,,,,
33394,1722833333943,0.5566,,,,,,,,,,,,,,,,,,0,,,,,,,,,,,,,,,,,,,,,
33399,1722833333948,0.5566,,,,,,,,,,,,,,,,,,0,,,,,,,,,,,,,,,,,,,,,
33404,1722833333953,0.5567,,,,,,,,,,,,,,,,,,0,,,,,,,,,,,,,,,,,,,,,
33409,1722833333958,0.5568,,,,,,,,,,,,,,,,,,0,,,,,,,,,,,,,,,,,,,,,
33414,1722833333963,0.5569,,,,,,,0.05,-0.02,0.01,0,0,-0,0.05,0.05,95,0,,0,,,,,,,,,,,,,,,,,,,,,
33419,1722833333968,0.557,,,,,,,,,,,,,,,,,,0,,,,,,,,,,,,,,,,,,,,,
33424,1722833333973,0.5571,,,,,,,,,,,,,,,,,,0,,,,,,,,,,,,,,,,,,,,,
33429,1722833333978,0.5572,,,,,,,,,,,,,,,,,,0,,,,,,,,,,,,,,,,,,,,,
33434,1722833333983,0.5572,,,,,,,,,,,,,,,,,,0,,,,,,,,,,,,,,,,,,,,,
33439,1722833333988,0.5573,,,,,,,,,,,,,,,,,,0,,,,,,,,,,,,,,,,,,,,,
33444,1722833333993,0.5574,,,,,,,,,,,,,,,,,,0,,,,,,,,,,,,,,,,,,,,,
33449,1722833333998,0.5575,,,,,,,,,,,,,,,,,,0,,,,,,,,,,,,,,,,,,,,,
33454,1722833333994,0.5576,4.45,0.7,1,,,,0.05,-0.02,0.01,0,0,-0,0.05,0.05,95,0,0,0,,,,,,,32.776577,-117.070602,0.35,494.5,10,2,2.4,0,0.0,-1,0.0,0.0,0,0.0,0.5576
33459,1722833333999,0.5577,,,,,,,,,,,,,,,,,,0,,,,,,,,,,,,,,,,,,,,,
33464,1722833334004,0.5577,,,,,,,,,,,,,,,,,,0,,,,,,,,,,,,,,,,,,,,,
33469,1722833334009,0.5578,,,,,,,,,,,,,,,,,,0,,,,,,,,,,,,,,,,,,,,,
33474,1722833334014,0.5579,,,,,,,,,,,,,,,,,,0,,,,,,,,,,,,,,,,,,,,,
33479,1722833334019,0.558,,,,,,,,,,,,,,,,,,0,,,,,,,,,,,,,,,,,,,,,
33484,1722833334024,0.5581,,,,,,,,,,,,,,,,,,0,,,,,,,,,,,,,,,,,,,,,
33489,1722833334029,0.5582,,,,,,,,,,,,,,,,,,0,,,,,,,,,,,,,,,,,,,,,
33494,1722833334034,0.5582,,,,,,,0.05,-0.02,0.0,0,0,-0,0.05,0.05,94,0,,0,,,,,,,,,,,,,,,,,,,,,
33499,1722833334039,0.5583,,,,,,,,,,,,,,,,,,0,,,,,,,,,,,,,,,,,,,,,
33504,1722833334044,0.5584,,,,,,,,,,,,,,,,,,0,,,,,,,,,,,,,,,,,,,,,
33509,1722833334049,0.5585,,,,,,,,,,,,,,,,,,0,,,,,,,,,,,,,,,,,,,,,
33514,1722833334054,0.5586,,,,,,,,,,,,,,,,,,0,,,,,,,,,,,,,,,,,,,,,
33519,1722833334059,0.5586,,,,,,,,,,,,,,,,,,0,,,,,,,,,,,,,,,,,,,,,
33524,1722833334064,0.5587,,,,,,,,,,,,,,,,,,0,,,,,,,,,,,,,,,,,,,,,
33529,1722833334069,0.5588,,,,,,,,,,,,,,,,,,0,,,,,,,,,,,,,,,,,,,,,
33534,1722833334074,0.5589,,,,,,,0.05,-0.02,0.01,0,0,-0,0.05,0.05,94,0,,0,,,,,,,,,,,,,,,,,,,,,
33539,1722833334079,0.559,,,,,,,,,,,,,,,,,,0,,,,,,,,,,,,,,,,,,,,,
33544,1722833334084,0.5591,,,,,,,,,,,,,,,,,,0,,,,,,,,,,,,,,,,,,,,,
33549,1722833334093,0.5592,,,,,,,,,,,,,,,,,,0,,,,,,,,,,,,,,,,,,,,,
33554,1722833334098,0.5592,4.537,0.7,1,,,,,,,,,,,,,,0,0,,,,,,,32.776573,-117.070602,0.18,494.6,10,2,2.4,0,0.0,-1,0.0,,0,0.0,0.5592
33559,1722833334103,0.5593,,,,,,,,,,,,,,,,,,0,,,,,,,,,,,,,,,,,,,,,
33564,1722833334108,0.5594,,,,,,,,,,,,,,,,,,0,,,,,,,,,,,,,,,,,,,,,
33569,1722833334113,0.5595,,,,,,,,,,,,,,,,,,0,,,,,,,,,,,,,,,,,,,,,
33574,1722833334118,0.5596,,,,,,,0.05,-0.02,0.01,0,-0,-0,0.05,0.05,95,0,,0,,,,,,,,,,,,,,,,,,,,,
33579,1722833334123,0.5596,,,,,,,,,,,,,,,,,,0,,,,,,,,,,,,,,,,,,,,,
33584,1722833334128,0.5597,,,,,,,,,,,,,,,,,,0,,,,,,,,,,,,,,,,,,,,,
33589,1722833334133,0.5598,,,,,,,,,,,,,,,,,,0,,,,,,,,,,,,,,,,,,,,,
33594,1722833334138,0.5599,,,,,,,,,,,,,,,,,,0,,,,,,,,,,,,,,,,,,,,,
33599,1722833334143,0.56,,,,,,,,,,,,,,,,,,0,,,,,,,,,,,,,,,,,,,,,
33604,1722833334148,0.5601,,,,,,,,,,,,,,,,,,0,,,,,,,,,,,,,,,,,,,,,
33609,1722833334153,0.5602,,,,,,,,,,,,,,,,,,0,,,,,,,,,,,,,,,,,,,,,
33614,1722833334158,0.5602,,,,,,,0.05,-0.02,0.01,0,0,-0,0.05,0.05,95,0,,0,,,,,,,,,,,,,,,,,,,,,
33619,1722833334163,0.5603,,,,,,,,,,,,,,,,,,0,,,,,,,,,,,,,,,,,,,,,
33624,1722833334168,0.5604,,,,,,,,,,,,,,,,,,0,,,,,,,,,,,,,,,,,,,,,
33629,1722833334173,0.5605,,,,,,,,,,,,,,,,,,0,,,,,,,,,,,,,,,,,,,,,
33634,1722833334178,0.5606,,,,,,,,,,,,,,,,,,0,,,,,,,,,,,,,,,,,,,,,
33639,1722833334183,0.5606,,,,,,,,,,,,,,,,,,0,,,,,,,,,,,,,,,,,,,,,
33644,1722833334192,0.5607,,,,,,,,,,,,,,,,,,0,,,,,,,,,,,,,,,,,,,,,
33649,1722833334197,0.5608,,,,,,,,,,,,,,,,,,0,,,,,,,,,,,,,,,,,,,,,
33654,1722833334202,0.5609,4.19,0.7,1,,,,0.05,-0.02,0.0,0,-0,-0,0.05,0.05,94,0,0,0,,,,,,,32.776577,-117.070602,0.16,494.4,10,2,2.4,0,0.0,-1,0.0,0.0,0,0.0,0.5609
33659,1722833334207,0.561,,,,,,,,,,,,,,,,,,0,,,,,,,,,,,,,,,,,,,,,
33664,1722833334212,0.5611,,,,,,,,,,,,,,,,,,0,,,,,,,,,,,,,,,,,,,,,
33669,1722833334217,0.5612,,,,,,,,,,,,,,,,,,0,,,,,,,,,,,,,,,,,,,,,
33674,1722833334222,0.5612,,,,,,,,,,,,,,,,,,0,,,,,,,,,,,,,,,,,,,,,
33679,1722833334227,0.5613,,,,,,,,,,,,,,,,,,0,,,,,,,,,,,,,,,,,,,,,
33684,1722833334232,0.5614,,,,,,,,,,,,,,,,,,0,,,,,,,,,,,,,,,,,,,,,
33689,1722833334237,0.5615,,,,,,,,,,,,,,,,,,0,,,,,,,,,,,,,,,,,,,,,
33694,1722833334242,0.5616,,,,,,,0.05,-0.02,0.01,0,0,-0,0.05,0.05,96,0,,0,,,,,,,,,,,,,,,,,,,,,
33699,1722833334247,0.5616,,,,,,,,,,,,,,,,,,0,,,,,,,,,,,,,,,,,,,,,
33704,1722833334252,0.5617,,,,,,,,,,,,,,,,,,0,,,,,,,,,,,,,,,,,,,,,
33709,1722833334257,0.5618,,,,,,,,,,,,,,,,,,0,,,,,,,,,,,,,,,,,,,,,
33714,1722833334262,0.5619,,,,,,,,,,,,,,,,,,0,,,,,,,,,,,,,,,,,,,,,
33719,1722833334267,0.562,,,,,,,,,,,,,,,,,,0,,,,,,,,,,,,,,,,,,,,,
33724,1722833334272,0.5621,,,,,,,,,,,,,,,,,,0,,,,,,,,,,,,,,,,,,,,,
33729,1722833334277,0.5622,,,,,,,,,,,,,,,,,,0,,,,,,,,,,,,,,,,,,,,,
33734,1722833334282,0.5622,,,,,,,0.05,-0.02,0.0,0,0,-0,0.05,0.05,95,0,,0,,,,,,,,,,,,,,,,,,,,,
33739,1722833334287,0.5623,,,,,,,,,,,,,,,,,,0,,,,,,,,,,,,,,,,,,,,,
33744,1722833334292,0.5624,,,,,,,,,,,,,,,,,,0,,,,,,,,,,,,,,,,,,,,,
33749,1722833334297,0.5625,,,,,,,,,,,,,,,,,,0,,,,,,,,,,,,,,,,,,,,,
33754,1722833334302,0.5626,4.537,0.6,1,,,,,,,,,,,,,,0,0,,,,,,,32.776577,-117.070602,0.33,494.2,10,2,2.4,0,0.0,-1,0.0,,0,0.0,0.5626
33759,1722833334307,0.5627,,,,,,,,,,,,,,,,,,0,,,,,,,,,,,,,,,,,,,,,
33764,1722833334312,0.5627,,,,,,,,,,,,,,,,,,0,,,,,,,,,,,,,,,,,,,,,
33769,1722833334317,0.5628,,,,,,,,,,,,,,,,,,0,,,,,,,,,,,,,,,,,,,,,
33774,1722833334322,0.5629,,,,,,,0.05,-0.02,0.0,0,0,-0,0.05,0.05,94,0,,0,,,,,,,,,,,,,,,,,,,,,
33779,1722833334327,0.563,,,,,,,,,,,,,,,,,,0,,,,,,,,,,,,,,,,,,,,,
33784,1722833334332,0.5631,,,,,,,,,,,,,,,,,,0,,,,,,,,,,,,,,,,,,,,,
33789,1722833334337,0.5632,,,,,,,,,,,,,,,,,,0,,,,,,,,,,,,,,,,,,,,,
33794,1722833334342,0.5632,,,,,,,,,,,,,,,,,,0,,,,,,,,,,,,,,,,,,,,,
33799,1722833334347,0.5633,,,,,,,,,,,,,,,,,,0,,,,,,,,,,,,,,,,,,,,,
33804,1722833334352,0.5634,,,,,,,,,,,,,,,,,,0,,,,,,,,,,,,,,,,,,,,,
33809,1722833334357,0.5635,,,,,,,,,,,,,,,,,,0,,,,,,,,,,,,,,,,,,,,,
33814,1722833334362,0.5636,,,,,,,0.05,-0.02,0.0,0,0,-0,0.05,0.05,94,0,,0,,,,,,,,,,,,,,,,,,,,,
33819,1722833334367,0.5636,,,,,,,,,,,,,,,,,,0,,,,,,,,,,,,,,,,,,,,,
33824,1722833334372,0.5637,,,,,,,,,,,,,,,,,,0,,,,,,,,,,,,,,,,,,,,,
33829,1722833334377,0.5638,,,,,,,,,,,,,,,,,,0,,,,,,,,,,,,,,,,,,,,,
33834,1722833334382,0.5639,,,,,,,,,,,,,,,,,,0,,,,,,,,,,,,,,,,,,,,,
33839,1722833334387,0.564,,,,,,,,,,,,,,,,,,0,,,,,,,,,,,,,,,,,,,,,
33844,1722833334392,0.5641,,,,,,,,,,,,,,,,,,0,,,,,,,,,,,,,,,,,,,,,
33849,1722833334397,0.5642,,,,,,,,,,,,,,,,,,0,,,,,,,,,,,,,,,,,,,,,
33854,1722833334402,0.5642,4.537,0.7,1,,,,0.05,-0.02,0.01,0,0,-0,0.05,0.05,96,0,0,0,,,,,,,32.776577,-117.070602,0.08,494.2,10,2,2.4,0,0.0,-1,0.0,0.0,0,0.0,0.5642
33859,1722833334407,0.5643,,,,,,,,,,,,,,,,,,0,,,,,,,,,,,,,,,,,,,,,
33864,1722833334412,0.5644,,,,,,,,,,,,,,,,,,0,,,,,,,,,,,,,,,,,,,,,
33869,1722833334417,0.5645,,,,,,,,,,,,,,,,,,0,,,,,,,,,,,,,,,,,,,,,
33874,1722833334422,0.5646,,,,,,,,,,,,,,,,,,0,,,,,,,,,,,,,,,,,,,,,
33879,1722833334427,0.5646,,,,,,,,,,,,,,,,,,0,,,,,,,,,,,,,,,,,,,,,
33884,1722833334432,0.5647,,,,,,,,,,,,,,,,,,0,,,,,,,,,,,,,,,,,,,,,
33889,1722833334437,0.5648,,,,,,,,,,,,,,,,,,0,,,,,,,,,,,,,,,,,,,,,
33894,1722833334442,0.5649,,,,,,,0.05,-0.02,0.01,0,-0,-0,0.05,0.05,95,0,,0,,,,,,,,,,,,,,,,,,,,,
33899,1722833334447,0.565,,,,,,,,,,,,,,,,,,0,,,,,,,,,,,,,,,,,,,,,
33904,1722833334452,0.5651,,,,,,,,,,,,,,,,,,0,,,,,,,,,,,,,,,,,,,,,
33909,1722833334457,0.5652,,,,,,,,,,,,,,,,,,0,,,,,,,,,,,,,,,,,,,,,
33914,1722833334462,0.5652,,,,,,,,,,,,,,,,,,0,,,,,,,,,,,,,,,,,,,,,
33919,1722833334467,0.5653,,,,,,,,,,,,,,,,,,0,,,,,,,,,,,,,,,,,,,,,
33924,1722833334472,0.5654,,,,,,,,,,,,,,,,,,0,,,,,,,,,,,,,,,,,,,,,
33929,1722833334477,0.5655,,,,,,,,,,,,,,,,,,0,,,,,,,,,,,,,,,,,,,,,
33934,1722833334482,0.5656,,,,,,,0.05,-0.02,0.01,0,-0,-0,0.05,0.05,96,0,,0,,,,,,,,,,,,,,,,,,,,,
33939,1722833334487,0.5656,,,,,,,,,,,,,,,,,,0,,,,,,,,,,,,,,,,,,,,,
33944,1722833334492,0.5657,,,,,,,,,,,,,,,,,,0,,,,,,,,,,,,,,,,,,,,,
33949,1722833334495,0.5658,,,,,,,,,,,,,,,,,,0,,,,,,,,,,,,,,,,,,,,,
33954,1722833334500,0.5659,4.537,0.7,1,,,,,,,,,,,,,,0,0,,,,,,,32.776577,-117.070602,0.13,494.2,10,2,2.4,0,0.0,-1,0.0,,0,0.0,0.5659
33959,1722833334505,0.566,,,,,,,,,,,,,,,,,,0,,,,,,,,,,,,,,,,,,,,,
33964,1722833334510,0.5661,,,,,,,,,,,,,,,,,,0,,,,,,,,,,,,,,,,,,,,,
33969,1722833334515,0.5662,,,,,,,,,,,,,,,,,,0,,,,,,,,,,,,,,,,,,,,,
33974,1722833334520,0.5662,,,,,,,0.05,-0.02,0.01,0,0,-0,0.05,0.05,95,0,,0,,,,,,,,,,,,,,,,,,,,,
33979,1722833334525,0.5663,,,,,,,,,,,,,,,,,,0,,,,,,,,,,,,,,,,,,,,,
33984,1722833334530,0.5664,,,,,,,,,,,,,,,,,,0,,,,,,,,,,,,,,,,,,,,,
33989,1722833334535,0.5665,,,,,,,,,,,,,,,,,,0,,,,,,,,,,,,,,,,,,,,,
33994,1722833334540,0.5666,,,,,,,,,,,,,,,,,,0,,,,,,,,,,,,,,,,,,,,,
33999,1722833334545,0.5666,,,,,,,,,,,,,,,,,,0,,,,,,,,,,,,,,,,,,,,,
34004,1722833334550,0.5667,,,,,,,,,,,,,,,,,,0,,,,,,,,,,,,,,,,,,,,,
34009,1722833334555,0.5668,,,,,,,,,,,,,,,,,,0,,,,,,,,,,,,,,,,,,,,,
34014,1722833334560,0.5669,,,,,,,0.05,-0.02,0.01,0,0,-0,0.05,0.05,95,0,,0,,,,,,,,,,,,,,,,,,,,,
34019,1722833334565,0.567,,,,,,,,,,,,,,,,,,0,,,,,,,,,,,,,,,,,,,,,
34024,1722833334570,0.5671,,,,,,,,,,,,,,,,,,0,,,,,,,,,,,,,,,,,,,,,
34029,1722833334575,0.5672,,,,,,,,,,,,,,,,,,0,,,,,,,,,,,,,,,,,,,,,
34034,1722833334580,0.5672,,,,,,,,,,,,,,,,,,0,,,,,,,,,,,,,,,,,,,,,
34039,1722833334585,0.5673,,,,,,,,,,,,,,,,,,0,,,,,,,,,,,,,,,,,,,,,
34044,1722833334592,0.5674,,,,,,,,,,,,,,,,,,0,,,,,,,,,,,,,,,,,,,,,
34049,1722833334597,0.5675,,,,,,,,,,,,,,,,,,0,,,,,,,,,,,,,,,,,,,,,
34054,1722833334602,0.5676,4.364,0.7,1,1,1.26,12.31,0.05,-0.02,0.01,0,0,-0,0.05,0.05,95,0,0,0,0,-1966,-19600,-1960,-25,-6366,32.776577,-117.070602,0.06,494.3,10,2,2.4,0,0.0,-1,0.0,0.0,0,0.0,0.5676
34059,1722833334607,0.5676,,,,,,,,,,,,,,,,,,0,,,,,,,,,,,,,,,,,,,,,
34064,1722833334612,0.5677,,,,,,,,,,,,,,,,,,0,,,,,,,,,,,,,,,,,,,,,
34069,1722833334617,0.5678,,,,,,,,,,,,,,,,,,0,,,,,,,,,,,,,,,,,,,,,
34074,1722833334622,0.5679,,,,,,,,,,,,,,,,,,0,,,,,,,,,,,,,,,,,,,,,
34079,1722833334627,0.568,,,,,,,,,,,,,,,,,,0,,,,,,,,,,,,,,,,,,,,,
34084,1722833334632,0.5681,,,,,,,,,,,,,,,,,,0,,,,,,,,,,,,,,,,,,,,,
34089,1722833334637,0.5682,,,,,,,,,,,,,,,,,,0,,,,,,,,,,,,,,,,,,,,,
34094,1722833334642,0.5682,,,,,,,0.05,-0.02,0.0,0,0,-0,0.05,0.05,94,0,,0,,,,,,,,,,,,,,,,,,,,,
34099,1722833334647,0.5683,,,,,,,,,,,,,,,,,,0,,,,,,,,,,,,,,,,,,,,,
34104,1722833334652,0.5684,,,,,,,,,,,,,,,,,,0,,,,,,,,,,,,,,,,,,,,,
34109,1722833334657,0.5685,,,,,,,,,,,,,,,,,,0,,,,,,,,,,,,,,,,,,,,,
34114,1722833334662,0.5686,,,,,,,,,,,,,,,,,,0,,,,,,,,,,,,,,,,,,,,,
34119,1722833334667,0.5686,,,,,,,,,,,,,,,,,,0,,,,,,,,,,,,,,,,,,,,,
34124,1722833334672,0.5687,,,,,,,,,,,,,,,,,,0,,,,,,,,,,,,,,,,,,,,,
34129,1722833334677,0.5688,,,,,,,,,,,,,,,,,,0,,,,,,,,,,,,,,,,,,,,,
34134,1722833334682,0.5689,,,,,,,0.05,-0.02,0.01,0,-0,-0,0.05,0.05,96,0,,0,,,,,,,,,,,,,,,,,,,,,
34139,1722833334687,0.569,,,,,,,,,,,,,,,,,,0,,,,,,,,,,,,,,,,,,,,,
34144,1722833334692,0.5691,,,,,,,,,,,,,,,,,,0,,,,,,,,,,,,,,,,,,,,,
34149,1722833334695,0.5691,,,,,,,,,,,,,,,,,,0,,,,,,,,,,,,,,,,,,,,,
34154,1722833334700,0.5692,4.19,0.7,1,,,,,,,,,,,,,,0,0,,,,,,,32.776577,-117.070602,0.16,494.0,10,2,2.4,0,0.0,-1,0.0,,0,0.0,0.5692
34159,1722833334705,0.5693,,,,,,,,,,,,,,,,,,0,,,,,,,,,,,,,,,,,,,,,
34164,1722833334710,0.5694,,,,,,,,,,,,,,,,,,0,,,,,,,,,,,,,,,,,,,,,
34169,1722833334715,0.5695,,,,,,,,,,,,,,,,,,0,,,,,,,,,,,,,,,,,,,,,
34174,1722833334720,0.5696,,,,,,,0.05,-0.02,0.01,0,-0,-0,0.05,0.05,97,0,,0,,,,,,,,,,,,,,,,,,,,,
34179,1722833334725,0.5696,,,,,,,,,,,,,,,,,,0,,,,,,,,,,,,,,,,,,,,,
34184,1722833334730,0.5697,,,,,,,,,,,,,,,,,,0,,,,,,,,,,,,,,,,,,,,,
34189,1722833334735,0.5698,,,,,,,,,,,,,,,,,,0,,,,,,,,,,,,,,,,,,,,,
34194,1722833334740,0.5699,,,,,,,,,,,,,,,,,,0,,,,,,,,,,,,,,,,,,,,,
34199,1722833334745,0.57,,,,,,,,,,,,,,,,,,0,,,,,,,,,,,,,,,,,,,,,
34204,1722833334750,0.5701,,,,,,,,,,,,,,,,,,0,,,,,,,,,,,,,,,,,,,,,
34209,1722833334755,0.5702,,,,,,,,,,,,,,,,,,0,,,,,,,,,,,,,,,,,,,,,
34214,1722833334760,0.5702,,,,,,,0.05,-0.02,0.01,0,-0,-0,0.05,0.05,96,0,,0,,,,,,,,,,,,,,,,,,,,,
34219,1722833334765,0.5703,,,,,,,,,,,,,,,,,,0,,,,,,,,,,,,,,,,,,,,,
34224,1722833334770,0.5704,,,,,,,,,,,,,,,,,,0,,,,,,,,,,,,,,,,,,,,,
34229,1722833334775,0.5705,,,,,,,,,,,,,,,,,,0,,,,,,,,,,,,,,,,,,,,,
34234,1722833334780,0.5706,,,,,,,,,,,,,,,,,,0,,,,,,,,,,,,,,,,,,,,,
34239,1722833334785,0.5706,,,,,,,,,,,,,,,,,,0,,,,,,,,,,,,,,,,,,,,,
34244,1722833334792,0.5707,,,,,,,,,,,,,,,,,,0,,,,,,,,,,,,,,,,,,,,,
34249,1722833334797,0.5708,,,,,,,,,,,,,,,,,,0,,,,,,,,,,,,,,,,,,,,,
34254,1722833334802,0.5709,4.277,0.7,1,,,,0.05,-0.02,0.01,0,-0,-0,0.05,0.05,95,0,0,0,,,,,,,32.776577,-117.070602,0.29,494.0,10,2,2.4,0,0.0,-1,0.0,0.0,0,0.0,0.5709
34259,1722833334807,0.571,,,,,,,,,,,,,,,,,,0,,,,,,,,,,,,,,,,,,,,,
34264,1722833334812,0.5711,,,,,,,,,,,,,,,,,,0,,,,,,,,,,,,,,,,,,,,,
34269,1722833334817,0.5712,,,,,,,,,,,,,,,,,,0,,,,,,,,,,,,,,,,,,,,,
34274,1722833334822,0.5712,,,,,,,,,,,,,,,,,,0,,,,,,,,,,,,,,,,,,,,,
34279,1722833334827,0.5713,,,,,,,,,,,,,,,,,,0,,,,,,,,,,,,,,,,,,,,,
34284,1722833334832,0.5714,,,,,,,,,,,,,,,,,,0,,,,,,,,,,,,,,,,,,,,,
34289,1722833334837,0.5715,,,,,,,,,,,,,,,,,,0,,,,,,,,,,,,,,,,,,,,,
34294,1722833334842,0.5716,,,,,,,0.05,-0.02,0.01,0,-0,-0,0.05,0.05,95,0,,0,,,,,,,,,,,,,,,,,,,,,
34299,1722833334847,0.5717,,,,,,,,,,,,,,,,,,0,,,,,,,,,,,,,,,,,,,,,
34304,1722833334852,0.5717,,,,,,,,,,,,,,,,,,0,,,,,,,,,,,,,,,,,,,,,
34309,1722833334857,0.5718,,,,,,,,,,,,,,,,,,0,,,,,,,,,,,,,,,,,,,,,
34314,1722833334862,0.5719,,,,,,,,,,,,,,,,,,0,,,,,,,,,,,,,,,,,,,,,
34319,1722833334867,0.572,,,,,,,,,,,,,,,,,,0,,,,,,,,,,,,,,,,,,,,,
34324,1722833334872,0.5721,,,,,,,,,,,,,,,,,,0,,,,,,,,,,,,,,,,,,,,,
34329,1722833334877,0.5722,,,,,,,,,,,,,,,,,,0,,,,,,,,,,,,,,,,,,,,,
34334,1722833334882,0.5722,,,,,,,0.05,-0.02,0.01,0,-0,-0,0.05,0.05,95,0,,0,,,,,,,,,,,,,,,,,,,,,
34339,1722833334887,0.5723,,,,,,,,,,,,,,,,,,0,,,,,,,,,,,,,,,,,,,,,
34344,1722833334892,0.5724,,,,,,,,,,,,,,,,,,0,,,,,,,,,,,,,,,,,,,,,
34349,1722833334897,0.5725,,,,,,,,,,,,,,,,,,0,,,,,,,,,,,,,,,,,,,,,
34354,1722833334902,0.5726,4.624,0.7,1,,,,,,,,,,,,,,0,0,,,,,,,32.776577,-117.070602,0.5,493.5,10,2,2.4,0,0.0,-1,0.0,,0,0.0,0.5726
34359,1722833334907,0.5726,,,,,,,,,,,,,,,,,,0,,,,,,,,,,,,,,,,,,,,,
34364,1722833334912,0.5727,,,,,,,,,,,,,,,,,,0,,,,,,,,,,,,,,,,,,,,,
34369,1722833334917,0.5728,,,,,,,,,,,,,,,,,,0,,,,,,,,,,,,,,,,,,,,,
34374,1722833334922,0.5729,,,,,,,0.05,-0.02,0.01,0,-0,-0,0.05,0.05,98,0,,0,,,,,,,,,,,,,,,,,,,,,
34379,1722833334927,0.573,,,,,,,,,,,,,,,,,,0,,,,,,,,,,,,,,,,,,,,,
34384,1722833334932,0.5731,,,,,,,,,,,,,,,,,,0,,,,,,,,,,,,,,,,,,,,,
34389,1722833334937,0.5732,,,,,,,,,,,,,,,,,,0,,,,,,,,,,,,,,,,,,,,,
34394,1722833334942,0.5732,,,,,,,,,,,,,,,,,,0,,,,,,,,,,,,,,,,,,,,,
34399,1722833334947,0.5733,,,,,,,,,,,,,,,,,,0,,,,,,,,,,,,,,,,,,,,,
34404,1722833334952,0.5734,,,,,,,,,,,,,,,,,,0,,,,,,,,,,,,,,,,,,,,,
34409,1722833334957,0.5735,,,,,,,,,,,,,,,,,,0,,,,,,,,,,,,,,,,,,,,,
34414,1722833334962,0.5736,,,,,,,0.05,-0.02,0.01,0,0,-0,0.05,0.05,94,0,,0,,,,,,,,,,,,,,,,,,,,,
34419,1722833334967,0.5736,,,,,,,,,,,,,,,,,,0,,,,,,,,,,,,,,,,,,,,,
34424,1722833334972,0.5737,,,,,,,,,,,,,,,,,,0,,,,,,,,,,,,,,,,,,,,,
34429,1722833334977,0.5738,,,,,,,,,,,,,,,,,,0,,,,,,,,,,,,,,,,,,,,,
34434,1722833334982,0.5739,,,,,,,,,,,,,,,,,,0,,,,,,,,,,,,,,,,,,,,,
34439,1722833334987,0.574,,,,,,,,,,,,,,,,,,0,,,,,,,,,,,,,,,,,,,,,
34444,1722833334992,0.5741,,,,,,,,,,,,,,,,,,0,,,,,,,,,,,,,,,,,,,,,
34449,1722833334997,0.5742,,,,,,,,,,,,,,,,,,0,,,,,,,,,,,,,,,,,,,,,
34454,1722833334995,0.5742,4.624,0.7,1,,,,0.05,-0.01,0.01,0,-0,-0,0.05,0.05,92,0,0,0,,,,,,,32.776577,-117.070602,0.17,493.1,10,2,2.4,0,0.0,-1,0.0,0.0,0,0.0,0.5742
34459,1722833335000,0.5743,,,,,,,,,,,,,,,,,,0,,,,,,,,,,,,,,,,,,,,,
34464,1722833335005,0.5744,,,,,,,,,,,,,,,,,,0,,,,,,,,,,,,,,,,,,,,,
34469,1722833335010,0.5745,,,,,,,,,,,,,,,,,,0,,,,,,,,,,,,,,,,,,,,,
34474,1722833335015,0.5746,,,,,,,,,,,,,,,,,,0,,,,,,,,,,,,,,,,,,,,,
34479,1722833335020,0.5746,,,,,,,,,,,,,,,,,,0,,,,,,,,,,,,,,,,,,,,,
34484,1722833335025,0.5747,,,,,,,,,,,,,,,,,,0,,,,,,,,,,,,,,,,,,,,,
34489,1722833335030,0.5748,,,,,,,,,,,,,,,,,,0,,,,,,,,,,,,,,,,,,,,,
34494,1722833335035,0.5749,,,,,,,0.05,-0.02,0.0,0,-0,-0,0.05,0.05,95,0,,0,,,,,,,,,,,,,,,,,,,,,
34499,1722833335040,0.575,,,,,,,,,,,,,,,,,,0,,,,,,,,,,,,,,,,,,,,,
34504,1722833335045,0.5751,,,,,,,,,,,,,,,,,,0,,,,,,,,,,,,,,,,,,,,,
34509,1722833335050,0.5752,,,,,,,,,,,,,,,,,,0,,,,,,,,,,,,,,,,,,,,,
34514,1722833335055,0.5752,,,,,,,,,,,,,,,,,,0,,,,,,,,,,,,,,,,,,,,,
34519,1722833335060,0.5753,,,,,,,,,,,,,,,,,,0,,,,,,,,,,,,,,,,,,,,,
34524,1722833335065,0.5754,,,,,,,,,,,,,,,,,,0,,,,,,,,,,,,,,,,,,,,,
34529,1722833335070,0.5755,,,,,,,,,,,,,,,,,,0,,,,,,,,,,,,,,,,,,,,,
34534,1722833335075,0.5756,,,,,,,0.05,-0.02,0.0,0,-0,-0,0.05,0.05,96,0,,0,,,,,,,,,,,,,,,,,,,,,
34539,1722833335080,0.5756,,,,,,,,,,,,,,,,,,0,,,,,,,,,,,,,,,,,,,,,
34544,1722833335085,0.5757,,,,,,,,,,,,,,,,,,0,,,,,,,,,,,,,,,,,,,,,
34549,1722833335094,0.5758,,,,,,,,,,,,,,,,,,0,,,,,,,,,,,,,,,,,,,,,
34554,1722833335099,0.5759,4.364,0.7,1,,,,,,,,,,,,,,0,0,,,,,,,32.776577,-117.070602,0.38,492.8,10,2,2.4,0,0.0,-1,0.0,,0,0.0,0.5759
34559,1722833335104,0.576,,,,,,,,,,,,,,,,,,0,,,,,,,,,,,,,,,,,,,,,
34564,1722833335109,0.5761,,,,,,,,,,,,,,,,,,0,,,,,,,,,,,,,,,,,,,,,
34569,1722833335114,0.5762,,,,,,,,,,,,,,,,,,0,,,,,,,,,,,,,,,,,,,,,
34574,1722833335119,0.5762,,,,,,,0.05,-0.02,0.01,0,0,-0,0.05,0.05,96,0,,0,,,,,,,,,,,,,,,,,,,,,
34579,1722833335124,0.5763,,,,,,,,,,,,,,,,,,0,,,,,,,,,,,,,,,,,,,,,
34584,1722833335129,0.5764,,,,,,,,,,,,,,,,,,0,,,,,,,,,,,,,,,,,,,,,
34589,1722833335134,0.5765,,,,,,,,,,,,,,,,,,0,,,,,,,,,,,,,,,,,,,,,
34594,1722833335139,0.5766,,,,,,,,,,,,,,,,,,0,,,,,,,,,,,,,,,,,,,,,
34599,1722833335144,0.5766,,,,,,,,,,,,,,,,,,0,,,,,,,,,,,,,,,,,,,,,
34604,1722833335149,0.5767,,,,,,,,,,,,,,,,,,0,,,,,,,,,,,,,,,,,,,,,
34609,1722833335154,0.5768,,,,,,,,,,,,,,,,,,0,,,,,,,,,,,,,,,,,,,,,
34614,1722833335159,0.5769,,,,,,,0.05,-0.02,0.01,0,0,-0,0.05,0.05,97,0,,0,,,,,,,,,,,,,,,,,,,,,
34619,1722833335164,0.577,,,,,,,,,,,,,,,,,,0,,,,,,,,,,,,,,,,,,,,,
34624,1722833335169,0.5771,,,,,,,,,,,,,,,,,,0,,,,,,,,,,,,,,,,,,,,,
34629,1722833335174,0.5772,,,,,,,,,,,,,,,,,,0,,,,,,,,,,,,,,,,,,,,,
34634,1722833335179,0.5772,,,,,,,,,,,,,,,,,,0,,,,,,,,,,,,,,,,,,,,,
34639,1722833335184,0.5773,,,,,,,,,,,,,,,,,,0,,,,,,,,,,,,,,,,,,,,,
34644,1722833335191,0.5774,,,,,,,,,,,,,,,,,,0,,,,,,,,,,,,,,,,,,,,,
34649,1722833335196,0.5775,,,,,,,,,,,,,,,,,,0,,,,,,,,,,,,,,,,,,,,,
34654,1722833335201,0.5776,4.277,0.7,1,,,,0.05,-0.02,0.0,0,0,-0,0.05,0.05,94,0,0,0,,,,,,,32.776577,-117.070602,0.52,492.9,10,2,2.4,0,0.0,-1,0.0,0.0,0,0.0,0.5776
34659,1722833335206,0.5776,,,,,,,,,,,,,,,,,,0,,,,,,,,,,,,,,,,,,,,,
34664,1722833335211,0.5777,,,,,,,,,,,,,,,,,,0,,,,,,,,,,,,,,,,,,,,,
34669,1722833335216,0.5778,,,,,,,,,,,,,,,,,,0,,,,,,,,,,,,,,,,,,,,,
34674,1722833335221,0.5779,,,,,,,,,,,,,,,,,,0,,,,,,,,,,,,,,,,,,,,,
34679,1722833335226,0.578,,,,,,,,,,,,,,,,,,0,,,,,,,,,,,,,,,,,,,,,
34684,1722833335231,0.5781,,,,,,,,,,,,,,,,,,0,,,,,,,,,,,,,,,,,,,,,
34689,1722833335236,0.5781,,,,,,,,,,,,,,,,,,0,,,,,,,,,,,,,,,,,,,,,
34694,1722833335241,0.5782,,,,,,,0.05,-0.02,0.01,0,-0,-0,0.05,0.05,95,0,,0,,,,,,,,,,,,,,,,,,,,,
34699,1722833335246,0.5783,,,,,,,,,,,,,,,,,,0,,,,,,,,,,,,,,,,,,,,,
34704,1722833335251,0.5784,,,,,,,,,,,,,,,,,,0,,,,,,,,,,,,,,,,,,,,,
34709,1722833335256,0.5785,,,,,,,,,,,,,,,,,,0,,,,,,,,,,,,,,,,,,,,,
34714,1722833335261,0.5786,,,,,,,,,,,,,,,,,,0,,,,,,,,,,,,,,,,,,,,,
34719,1722833335266,0.5786,,,,,,,,,,,,,,,,,,0,,,,,,,,,,,,,,,,,,,,,
34724,1722833335271,0.5787,,,,,,,,,,,,,,,,,,0,,,,,,,,,,,,,,,,,,,,,
34729,1722833335276,0.5788,,,,,,,,,,,,,,,,,,0,,,,,,,,,,,,,,,,,,,,,
34734,1722833335281,0.5789,,,,,,,0.05,-0.02,0.01,0,0,-0,0.05,0.05,95,0,,0,,,,,,,,,,,,,,,,,,,,,
34739,1722833335286,0.579,,,,,,,,,,,,,,,,,,0,,,,,,,,,,,,,,,,,,,,,
34744,1722833335291,0.5791,,,,,,,,,,,,,,,,,,0,,,,,,,,,,,,,,,,,,,,,
34749,1722833335296,0.5792,,,,,,,,,,,,,,,,,,0,,,,,,,,,,,,,,,,,,,,,
34754,1722833335301,0.5792,4.537,0.7,1,,,,,,,,,,,,,,0,0,,,,,,,32.776577,-117.070602,0.25,493.0,10,2,2.4,0,0.0,-1,0.0,,0,0.0,0.5792
34759,1722833335306,0.5793,,,,,,,,,,,,,,,,,,0,,,,,,,,,,,,,,,,,,,,,
34764,1722833335311,0.5794,,,,,,,,,,,,,,,,,,0,,,,,,,,,,,,,,,,,,,,,
34769,1722833335316,0.5795,,,,,,,,,,,,,,,,,,0,,,,,,,,,,,,,,,,,,,,,
34774,1722833335321,0.5796,,,,,,,0.05,-0.02,0.01,0,0,-0,0.05,0.05,96,0,,0,,,,,,,,,,,,,,,,,,,,,
34779,1722833335326,0.5796,,,,,,,,,,,,,,,,,,0,,,,,,,,,,,,,,,,,,,,,
34784,1722833335331,0.5797,,,,,,,,,,,,,,,,,,0,,,,,,,,,,,,,,,,,,,,,
34789,1722833335336,0.5798,,,,,,,,,,,,,,,,,,0,,,,,,,,,,,,,,,,,,,,,
34794,1722833335341,0.5799,,,,,,,,,,,,,,,,,,0,,,,,,,,,,,,,,,,,,,,,
34799,1722833335346,0.58,,,,,,,,,,,,,,,,,,0,,,,,,,,,,,,,,,,,,,,,
34804,1722833335351,0.5801,,,,,,,,,,,,,,,,,,0,,,,,,,,,,,,,,,,,,,,,
34809,1722833335356,0.5802,,,,,,,,,,,,,,,,,,0,,,,,,,,,,,,,,,,,,,,,
34814,1722833335361,0.5802,,,,,,,0.05,-0.02,0.01,0,0,-0,0.05,0.05,96,0,,0,,,,,,,,,,,,,,,,,,,,,
34819,1722833335366,0.5803,,,,,,,,,,,,,,,,,,0,,,,,,,,,,,,,,,,,,,,,
34824,1722833335371,0.5804,,,,,,,,,,,,,,,,,,0,,,,,,,,,,,,,,,,,,,,,
34829,1722833335376,0.5805,,,,,,,,,,,,,,,,,,0,,,,,,,,,,,,,,,,,,,,,
34834,1722833335381,0.5806,,,,,,,,,,,,,,,,,,0,,,,,,,,,,,,,,,,,,,,,
34839,1722833335386,0.5806,,,,,,,,,,,,,,,,,,0,,,,,,,,,,,,,,,,,,,,,
34844,1722833335391,0.5807,,,,,,,,,,,,,,,,,,0,,,,,,,,,,,,,,,,,,,,,
34849,1722833335396,0.5808,,,,,,,,,,,,,,,,,,0,,,,,,,,,,,,,,,,,,,,,
34854,1722833335401,0.5809,4.277,0.7,1,,,,0.05,-0.02,0.0,0,-0,-0,0.05,0.05,95,0,0,0,,,,,,,32.776581,-117.070602,0.05,492.6,10,2,2.4,0,0.0,-1,0.0,0.0,0,0.0,0.5809
34859,1722833335406,0.581,,,,,,,,,,,,,,,,,,0,,,,,,,,,,,,,,,,,,,,,
34864,1722833335411,0.5811,,,,,,,,,,,,,,,,,,0,,,,,,,,,,,,,,,,,,,,,
34869,1722833335416,0.5812,,,,,,,,,,,,,,,,,,0,,,,,,,,,,,,,,,,,,,,,
34874,1722833335421,0.5812,,,,,,,,,,,,,,,,,,0,,,,,,,,,,,,,,,,,,,,,
34879,1722833335426,0.5813,,,,,,,,,,,,,,,,,,0,,,,,,,,,,,,,,,,,,,,,
34884,1722833335431,0.5814,,,,,,,,,,,,,,,,,,0,,,,,,,,,,,,,,,,,,,,,
34889,1722833335436,0.5815,,,,,,,,,,,,,,,,,,0,,,,,,,,,,,,,,,,,,,,,
34894,1722833335441,0.5816,,,,,,,0.05,-0.02,0.01,0,-0,-0,0.05,0.05,95,0,,0,,,,,,,,,,,,,,,,,,,,,
34899,1722833335446,0.5816,,,,,,,,,,,,,,,,,,0,,,,,,,,,,,,,,,,,,,,,
34904,1722833335451,0.5817,,,,,,,,,,,,,,,,,,0,,,,,,,,,,,,,,,,,,,,,
34909,1722833335456,0.5818,,,,,,,,,,,,,,,,,,0,,,,,,,,,,,,,,,,,,,,,
34914,1722833335461,0.5819,,,,,,,,,,,,,,,,,,0,,,,,,,,,,,,,,,,,,,,,
34919,1722833335466,0.582,,,,,,,,,,,,,,,,,,0,,,,,,,,,,,,,,,,,,,,,
34924,1722833335471,0.5821,,,,,,,,,,,,,,,,,,0,,,,,,,,,,,,,,,,,,,,,
34929,1722833335476,0.5822,,,,,,,,,,,,,,,,,,0,,,,,,,,,,,,,,,,,,,,,
34934,1722833335481,0.5822,,,,,,,0.05,-0.02,0.01,0,-0,-0,0.05,0.05,95,0,,0,,,,,,,,,,,,,,,,,,,,,
34939,1722833335486,0.5823,,,,,,,,,,,,,,,,,,0,,,,,,,,,,,,,,,,,,,,,
34944,1722833335491,0.5824,,,,,,,,,,,,,,,,,,0,,,,,,,,,,,,,,,,,,,,,
34949,1722833335494,0.5825,,,,,,,,,,,,,,,,,,0,,,,,,,,,,,,,,,,,,,,,
34954,1722833335499,0.5826,4.277,0.7,1,,,,,,,,,,,,,,0,0,,,,,,,32.776577,-117.070618,0.28,495.7,10,2,2.4,0,0.0,-1,0.0,,0,0.0,0.5826
34959,1722833335504,0.5826,,,,,,,,,,,,,,,,,,0,,,,,,,,,,,,,,,,,,,,,
34964,1722833335509,0.5827,,,,,,,,,,,,,,,,,,0,,,,,,,,,,,,,,,,,,,,,
34969,1722833335514,0.5828,,,,,,,,,,,,,,,,,,0,,,,,,,,,,,,,,,,,,,,,
34974,1722833335519,0.5829,,,,,,,0.05,-0.02,0.01,0,-0,-0,0.05,0.05,95,0,,0,,,,,,,,,,,,,,,,,,,,,
34979,1722833335524,0.583,,,,,,,,,,,,,,,,,,0,,,,,,,,,,,,,,,,,,,,,
34984,1722833335529,0.5831,,,,,,,,,,,,,,,,,,0,,,,,,,,,,,,,,,,,,,,,
34989,1722833335534,0.5832,,,,,,,,,,,,,,,,,,0,,,,,,,,,,,,,,,,,,,,,
34994,1722833335539,0.5832,,,,,,,,,,,,,,,,,,0,,,,,,,,,,,,,,,,,,,,,
34999,1722833335544,0.5833,,,,,,,,,,,,,,,,,,0,,,,,,,,,,,,,,,,,,,,,
35004,1722833335549,0.5834,,,,,,,,,,,,,,,,,,0,,,,,,,,,,,,,,,,,,,,,
35009,1722833335554,0.5835,,,,,,,,,,,,,,,,,,0,,,,,,,,,,,,,,,,,,,,,
35014,1722833335559,0.5836,,,,,,,0.05,-0.02,0.01,0,-0,-0,0.05,0.05,93,0,,0,,,,,,,,,,,,,,,,,,,,,
35019,1722833335564,0.5836,,,,,,,,,,,,,,,,,,0,,,,,,,,,,,,,,,,,,,,,
35024,1722833335569,0.5837,,,,,,,,,,,,,,,,,,0,,,,,,,,,,,,,,,,,,,,,
35029,1722833335574,0.5838,,,,,,,,,,,,,,,,,,0,,,,,,,,,,,,,,,,,,,,,
35034,1722833335579,0.5839,,,,,,,,,,,,,,,,,,0,,,,,,,,,,,,,,,,,,,,,
35039,1722833335584,0.584,,,,,,,,,,,,,,,,,,0,,,,,,,,,,,,,,,,,,,,,
35044,1722833335591,0.5841,,,,,,,,,,,,,,,,,,0,,,,,,,,,,,,,,,,,,,,,
35049,1722833335596,0.5842,,,,,,,,,,,,,,,,,,0,,,,,,,,,,,,,,,,,,,,,
35054,1722833335601,0.5842,4.364,0.7,1,1,1.26,12.25,0.05,-0.02,0.0,0,0,-0,0.05,0.05,95,0,0,0,0,-1986,-20600,-2060,-25,-6366,32.776577,-117.070618,0.25,496.3,10,2,2.4,0,0.0,-1,0.0,0.0,0,0.0,0.5842
35059,1722833335606,0.5843,,,,,,,,,,,,,,,,,,0,,,,,,,,,,,,,,,,,,,,,
35064,1722833335611,0.5844,,,,,,,,,,,,,,,,,,0,,,,,,,,,,,,,,,,,,,,,
35069,1722833335616,0.5845,,,,,,,,,,,,,,,,,,0,,,,,,,,,,,,,,,,,,,,,
35074,1722833335621,0.5846,,,,,,,,,,,,,,,,,,0,,,,,,,,,,,,,,,,,,,,,
35079,1722833335626,0.5846,,,,,,,,,,,,,,,,,,0,,,,,,,,,,,,,,,,,,,,,
35084,1722833335631,0.5847,,,,,,,,,,,,,,,,,,0,,,,,,,,,,,,,,,,,,,,,
35089,1722833335636,0.5848,,,,,,,,,,,,,,,,,,0,,,,,,,,,,,,,,,,,,,,,
35094,1722833335641,0.5849,,,,,,,0.05,-0.02,0.0,0,0,-0,0.05,0.05,95,0,,0,,,,,,,,,,,,,,,,,,,,,
35099,1722833335646,0.585,,,,,,,,,,,,,,,,,,0,,,,,,,,,,,,,,,,,,,,,
35104,1722833335651,0.5851,,,,,,,,,,,,,,,,,,0,,,,,,,,,,,,,,,,,,,,,
35109,1722833335656,0.5852,,,,,,,,,,,,,,,,,,0,,,,,,,,,,,,,,,,,,,,,
35114,1722833335661,0.5852,,,,,,,,,,,,,,,,,,0,,,,,,,,,,,,,,,,,,,,,
35119,1722833335666,0.5853,,,,,,,,,,,,,,,,,,0,,,,,,,,,,,,,,,,,,,,,
35124,1722833335671,0.5854,,,,,,,,,,,,,,,,,,0,,,,,,,,,,,,,,,,,,,,,
35129,1722833335676,0.5855,,,,,,,,,,,,,,,,,,0,,,,,,,,,,,,,,,,,,,,,
35134,1722833335681,0.5856,,,,,,,0.05,-0.02,0.01,0,-0,-0,0.05,0.05,94,0,,0,,,,,,,,,,,,,,,,,,,,,
35139,1722833335686,0.5857,,,,,,,,,,,,,,,,,,0,,,,,,,,,,,,,,,,,,,,,
35144,1722833335691,0.5857,,,,,,,,,,,,,,,,,,0,,,,,,,,,,,,,,,,,,,,,
35149,1722833335696,0.5858,,,,,,,,,,,,,,,,,,0,,,,,,,,,,,,,,,,,,,,,
35154,1722833335701,0.5859,4.364,0.7,1,,,,,,,,,,,,,,0,0,,,,,,,32.776585,-117.070602,0.28,493.2,10,2,3.9,0,0.0,-1,0.0,,0,0.0,0.5859
35159,1722833335706,0.586,,,,,,,,,,,,,,,,,,0,,,,,,,,,,,,,,,,,,,,,
35164,1722833335711,0.5861,,,,,,,,,,,,,,,,,,0,,,,,,,,,,,,,,,,,,,,,
35169,1722833335716,0.5862,,,,,,,,,,,,,,,,,,0,,,,,,,,,,,,,,,,,,,,,
35174,1722833335721,0.5862,,,,,,,0.05,-0.02,0.01,0,0,-0,0.05,0.05,94,0,,0,,,,,,,,,,,,,,,,,,,,,
35179,1722833335726,0.5863,,,,,,,,,,,,,,,,,,0,,,,,,,,,,,,,,,,,,,,,
35184,1722833335731,0.5864,,,,,,,,,,,,,,,,,,0,,,,,,,,,,,,,,,,,,,,,
35189,1722833335736,0.5865,,,,,,,,,,,,,,,,,,0,,,,,,,,,,,,,,,,,,,,,
35194,1722833335741,0.5866,,,,,,,,,,,,,,,,,,0,,,,,,,,,,,,,,,,,,,,,
35199,1722833335746,0.5866,,,,,,,,,,,,,,,,,,0,,,,,,,,,,,,,,,,,,,,,
35204,1722833335751,0.5867,,,,,,,,,,,,,,,,,,0,,,,,,,,,,,,,,,,,,,,,
35209,1722833335756,0.5868,,,,,,,,,,,,,,,,,,0,,,,,,,,,,,,,,,,,,,,,
35214,1722833335761,0.5869,,,,,,,0.05,-0.02,0.01,0,0,-0,0.05,0.05,94,0,,0,,,,,,,,,,,,,,,,,,,,,
35219,1722833335766,0.587,,,,,,,,,,,,,,,,,,0,,,,,,,,,,,,,,,,,,,,,
35224,1722833335771,0.5871,,,,,,,,,,,,,,,,,,0,,,,,,,,,,,,,,,,,,,,,
35229,1722833335776,0.5872,,,,,,,,,,,,,,,,,,0,,,,,,,,,,,,,,,,,,,,,
35234,1722833335781,0.5872,,,,,,,,,,,,,,,,,,0,,,,,,,,,,,,,,,,,,,,,
35239,1722833335786,0.5873,,,,,,,,,,,,,,,,,,0,,,,,,,,,,,,,,,,,,,,,
35244,1722833335791,0.5874,,,,,,,,,,,,,,,,,,0,,,,,,,,,,,,,,,,,,,,,
35249,1722833335796,0.5875,,,,,,,,,,,,,,,,,,0,,,,,,,,,,,,,,,,,,,,,
35254,1722833335801,0.5876,4.364,0.7,1,,,,0.05,-0.02,0.01,0,-0,-0,0.05,0.05,94,0,0,0,,,,,,,32.776585,-117.070618,0.15,493.7,10,2,2.4,0,0.0,-1,0.0,0.0,0,0.0,0.5876
35259,1722833335806,0.5876,,,,,,,,,,,,,,,,,,0,,,,,,,,,,,,,,,,,,,,,
35264,1722833335811,0.5877,,,,,,,,,,,,,,,,,,0,,,,,,,,,,,,,,,,,,,,,
35269,1722833335816,0.5878,,,,,,,,,,,,,,,,,,0,,,,,,,,,,,,,,,,,,,,,
35274,1722833335821,0.5879,,,,,,,,,,,,,,,,,,0,,,,,,,,,,,,,,,,,,,,,
35279,1722833335826,0.588,,,,,,,,,,,,,,,,,,0,,,,,,,,,,,,,,,,,,,,,
35284,1722833335831,0.5881,,,,,,,,,,,,,,,,,,0,,,,,,,,,,,,,,,,,,,,,
35289,1722833335836,0.5882,,,,,,,,,,,,,,,,,,0,,,,,,,,,,,,,,,,,,,,,
35294,1722833335841,0.5882,,,,,,,0.05,-0.02,0.01,0,0,-0,0.05,0.05,94,0,,0,,,,,,,,,,,,,,,,,,,,,
35299,1722833335846,0.5883,,,,,,,,,,,,,,,,,,0,,,,,,,,,,,,,,,,,,,,,
35304,1722833335851,0.5884,,,,,,,,,,,,,,,,,,0,,,,,,,,,,,,,,,,,,,,,
35309,1722833335856,0.5885,,,,,,,,,,,,,,,,,,0,,,,,,,,,,,,,,,,,,,,,
35314,1722833335861,0.5886,,,,,,,,,,,,,,,,,,0,,,,,,,,,,,,,,,,,,,,,
35319,1722833335866,0.5886,,,,,,,,,,,,,,,,,,0,,,,,,,,,,,,,,,,,,,,,
35324,1722833335871,0.5887,,,,,,,,,,,,,,,,,,0,,,,,,,,,,,,,,,,,,,,,
35329,1722833335876,0.5888,,,,,,,,,,,,,,,,,,0,,,,,,,,,,,,,,,,,,,,,
35334,1722833335881,0.5889,,,,,,,0.05,-0.02,0.0,0,0,-0,0.05,0.05,94,0,,0,,,,,,,,,,,,,,,,,,,,,
35339,1722833335886,0.589,,,,,,,,,,,,,,,,,,0,,,,,,,,,,,,,,,,,,,,,
35344,1722833335891,0.5891,,,,,,,,,,,,,,,,,,0,,,,,,,,,,,,,,,,,,,,,
35349,1722833335896,0.5892,,,,,,,,,,,,,,,,,,0,,,,,,,,,,,,,,,,,,,,,
35354,1722833335901,0.5892,4.45,0.7,1,,,,,,,,,,,,,,0,0,,,,,,,32.776585,-117.070618,0.34,494.6,10,2,2.4,0,0.0,-1,0.0,,0,0.0,0.5892
35359,1722833335906,0.5893,,,,,,,,,,,,,,,,,,0,,,,,,,,,,,,,,,,,,,,,
35364,1722833335911,0.5894,,,,,,,,,,,,,,,,,,0,,,,,,,,,,,,,,,,,,,,,
35369,1722833335916,0.5895,,,,,,,,,,,,,,,,,,0,,,,,,,,,,,,,,,,,,,,,
35374,1722833335921,0.5896,,,,,,,0.05,-0.02,0.0,0,0,-0,0.05,0.05,94,0,,0,,,,,,,,,,,,,,,,,,,,,
35379,1722833335926,0.5896,,,,,,,,,,,,,,,,,,0,,,,,,,,,,,,,,,,,,,,,
35384,1722833335931,0.5897,,,,,,,,,,,,,,,,,,0,,,,,,,,,,,,,,,,,,,,,
35389,1722833335936,0.5898,,,,,,,,,,,,,,,,,,0,,,,,,,,,,,,,,,,,,,,,
35394,1722833335941,0.5899,,,,,,,,,,,,,,,,,,0,,,,,,,,,,,,,,,,,,,,,
35399,1722833335946,0.59,,,,,,,,,,,,,,,,,,0,,,,,,,,,,,,,,,,,,,,,
35404,1722833335951,0.5901,,,,,,,,,,,,,,,,,,0,,,,,,,,,,,,,,,,,,,,,
35409,1722833335956,0.5902,,,,,,,,,,,,,,,,,,0,,,,,,,,,,,,,,,,,,,,,
35414,1722833335961,0.5902,,,,,,,0.05,-0.02,0.01,0,0,-0,0.05,0.05,95,0,,0,,,,,,,,,,,,,,,,,,,,,
35419,1722833335966,0.5903,,,,,,,,,,,,,,,,,,0,,,,,,,,,,,,,,,,,,,,,
35424,1722833335971,0.5904,,,,,,,,,,,,,,,,,,0,,,,,,,,,,,,,,,,,,,,,
35429,1722833335976,0.5905,,,,,,,,,,,,,,,,,,0,,,,,,,,,,,,,,,,,,,,,
35434,1722833335981,0.5906,,,,,,,,,,,,,,,,,,0,,,,,,,,,,,,,,,,,,,,,
35439,1722833335986,0.5906,,,,,,,,,,,,,,,,,,0,,,,,,,,,,,,,,,,,,,,,
35444,1722833335991,0.5907,,,,,,,,,,,,,,,,,,0,,,,,,,,,,,,,,,,,,,,,
35449,1722833335991,0.5908,,,,,,,,,,,,,,,,,,0,,,,,,,,,,,,,,,,,,,,,
